index;City;State;Population;Latitude;Longitude;city-state;AlternateNames;isStateCapital
0114TB103;Löwenströmska lasarettet;Stockholm;605;59.541799;17.916415;Löwenströmska lasarettet, Stockholm;;False
0115TB101;Brottby;Stockholm;213;59.560959;18.238716;Brottby, Stockholm;;False
0115TB103;Ekskogen;Stockholm;278;59.641435;18.231124;Ekskogen, Stockholm;;False
0115TB104;Johannesudd;Stockholm;374;59.551617;18.030971;Johannesudd, Stockholm;;False
0115TB106;Kårsta;Stockholm;630;59.657503;18.274701;Kårsta, Stockholm;;False
0115TC108;Vallentuna;Stockholm;33918;59.533224;18.07645;Vallentuna, Stockholm;;False
0117TB101;Bammarboda;Stockholm;759;59.506469;18.468463;Bammarboda, Stockholm;;False
0117TB106;Rydbo;Stockholm;574;59.463626;18.185024;Rydbo, Stockholm;;False
0117TB107;Solberga;Stockholm;536;59.495278;18.356389;Solberga, Stockholm;;False
0117TB111;Svinninge;Stockholm;3325;59.449483;18.283511;Svinninge, Stockholm;;False
0117TC112;Åkersberga;Stockholm;37714;59.482351;18.294398;Åkersberga, Stockholm;;False
0120TB104;Betsede;Stockholm;346;59.329785;18.431584;Betsede, Stockholm;;False
0120TB114;Kopparmora;Stockholm;2366;59.335833;18.565;Kopparmora, Stockholm;;False
0120TB117;Norra Lagnö;Stockholm;340;59.354259;18.408346;Norra Lagnö, Stockholm;;False
0120TB119;Lugnet och Skälsmara;Stockholm;743;59.25587;18.535627;Lugnet och Skälsmara, Stockholm;;False
0120TB120;Stavsnäs;Stockholm;1898;59.288201;18.691782;Stavsnäs, Stockholm;;False
0120TB125;Ängsvik;Stockholm;425;59.240578;18.530325;Ängsvik, Stockholm;;False
0120TB126;Älvsala;Stockholm;534;59.297232;18.640445;Älvsala, Stockholm;;False
0120TC109;Gustavsberg;Stockholm;25034;59.325623;18.388514;Gustavsberg, Stockholm;;False
0125TB101;Drottningholm;Stockholm;320;59.324925;17.887332;Drottningholm, Stockholm;;False
0125TB103;Ekerö sommarstad;Stockholm;602;59.276032;17.7345;Ekerö sommarstad, Stockholm;;False
0125TB106;Kungsberga;Stockholm;876;59.405967;17.627952;Kungsberga, Stockholm;;False
0125TB107;Lilla Stenby;Stockholm;296;59.384764;17.524639;Lilla Stenby, Stockholm;;False
0125TB108;Lurudden;Stockholm;235;59.274685;17.70826;Lurudden, Stockholm;;False
0125TB109;Sundby;Stockholm;478;59.288476;17.719274;Sundby, Stockholm;;False
0125TB111;Stenhamra;Stockholm;3743;59.334749;17.687364;Stenhamra, Stockholm;;False
0125TB112;Söderby;Stockholm;297;59.3825;17.585278;Söderby, Stockholm;;False
0125TB115;Ölsta;Stockholm;715;59.400148;17.655159;Ölsta, Stockholm;;False
0125TC102;Ekerö;Stockholm;12270;59.355591;17.622421;Ekerö, Stockholm;;False
0126TB101;Gladö kvarn;Stockholm;979;59.1909;17.98233;Gladö kvarn, Stockholm;;False
0126TB102;Vidja;Stockholm;994;59.197165;18.059693;Vidja, Stockholm;;False
0127TB101;Norra Riksten;Stockholm;3592;59.189071;17.915707;Norra Riksten, Stockholm;;False
0127TB102;Sibble;Stockholm;344;59.112867;17.744928;Sibble, Stockholm;;False
0127TC103;Tumba;Stockholm;46893;59.200555;17.834312;Tumba, Stockholm;;False
0136TB101;Dalarö;Stockholm;1885;59.133518;18.405239;Dalarö, Stockholm;;False
0136TB103;Muskö;Stockholm;283;58.99583;18.114857;Muskö, Stockholm;;False
0136TB104;Norra Muskö;Stockholm;270;58.99583;18.114857;Norra Muskö, Stockholm;;False
0136TB105;Väländan;Stockholm;562;59.112957;17.987988;Väländan, Stockholm;;False
0136TB106;Västerhaninge;Stockholm;31941;59.122159;18.108596;Västerhaninge, Stockholm;;False
0136TB108;Årsta Havsbad;Stockholm;595;59.086226;18.165957;Årsta Havsbad, Stockholm;;False
0139TB103;Håbo-Tibble kyrkby;Stockholm;658;59.587032;17.661931;Håbo-Tibble kyrkby, Stockholm;;False
0139TB106;Rättarboda;Stockholm;2433;59.500988;17.604074;Rättarboda, Stockholm;;False
0140TB101;Finkarby;Stockholm;218;59.224838;17.308238;Finkarby, Stockholm;;False
0140TC102;Nykvarn;Stockholm;8508;59.196648;17.397728;Nykvarn, Stockholm;;False
0160TB101;Arninge;Stockholm;2789;59.464709;18.129501;Arninge, Stockholm;;False
0162TB101;Tranholmen;Stockholm;436;59.291823;17.779643;Tranholmen, Stockholm;;False
0180TC101;Stockholm;Stockholm;1652895;59.325117;18.071093;Stockholm, Stockholm;;True
0181TB101;Ekeby;Stockholm;991;59.183333;17.633333;Ekeby, Stockholm;;False
0181TB102;Hölö;Stockholm;1646;59.025492;17.535552;Hölö, Stockholm;;False
0181TB103;Järna;Stockholm;6110;59.083333;17.566667;Järna, Stockholm;;False
0181TB104;Mölnbo;Stockholm;1149;59.048603;17.41531;Mölnbo, Stockholm;;False
0181TB105;Pershagen;Stockholm;2242;59.152798;17.656331;Pershagen, Stockholm;;False
0181TB106;Sandviken;Stockholm;451;59.183333;17.633333;Sandviken, Stockholm;;False
0181TB107;Nibble;Stockholm;237;59.064191;17.6241;Nibble, Stockholm;;False
0181TB109;Tuna;Stockholm;419;59.253428;17.490446;Tuna, Stockholm;;False
0181TB110;Vattubrinken;Stockholm;418;59.243867;17.582851;Vattubrinken, Stockholm;;False
0181TC108;Södertälje;Stockholm;78377;59.196428;17.627166;Södertälje, Stockholm;;False
0182TB102;Fisksätra;Stockholm;7897;59.292196;18.253788;Fisksätra, Stockholm;;False
0182TB106;Saltsjöbaden;Stockholm;9409;59.279277;18.304929;Saltsjöbaden, Stockholm;;False
0182TB108;Älgö;Stockholm;1040;59.266912;18.343347;Älgö, Stockholm;;False
0186TB103;Sticklinge udde;Stockholm;3000;59.390487;18.090382;Sticklinge udde, Stockholm;;False
0186TC102;Lidingö;Stockholm;44642;59.364384;18.133142;Lidingö, Stockholm;;False
0187TB102;Rindö;Stockholm;1442;59.40183;18.372286;Rindö, Stockholm;;False
0187TB103;Resarö;Stockholm;3239;59.430784;18.333296;Resarö, Stockholm;;False
0187TB105;Tynningö;Stockholm;332;59.377574;18.392701;Tynningö, Stockholm;;False
0187TB106;Skarpö;Stockholm;252;59.395874;18.976177;Skarpö, Stockholm;;False
0187TC104;Vaxholm;Stockholm;6025;59.400907;18.290323;Vaxholm, Stockholm;;False
0188TB101;Bergshamra;Stockholm;643;59.639531;18.656496;Bergshamra, Stockholm;;False
0188TB102;Blidö;Stockholm;273;59.614538;18.901464;Blidö, Stockholm;;False
0188TB103;Edsbro;Stockholm;574;59.895128;18.492378;Edsbro, Stockholm;;False
0188TB104;Finsta;Stockholm;249;59.736929;18.492091;Finsta, Stockholm;;False
0188TB105;Grisslehamn;Stockholm;368;60.098176;18.805852;Grisslehamn, Stockholm;;False
0188TB106;Hallstavik;Stockholm;4598;60.05176;18.597017;Hallstavik, Stockholm;;False
0188TB107;Herräng;Stockholm;320;60.129473;18.647286;Herräng, Stockholm;;False
0188TB110;Riala;Stockholm;428;59.631719;18.517372;Riala, Stockholm;;False
0188TB111;Rimbo;Stockholm;5346;59.745319;18.360176;Rimbo, Stockholm;;False
0188TB112;Rånäs;Stockholm;452;59.803183;18.301225;Rånäs, Stockholm;;False
0188TB113;Skebobruk;Stockholm;205;59.968548;18.612015;Skebobruk, Stockholm;;False
0188TB114;Spillersboda;Stockholm;485;59.702861;18.85637;Spillersboda, Stockholm;;False
0188TB115;Nysättra;Stockholm;268;59.810277;18.893669;Nysättra, Stockholm;;False
0188TB116;Svanberga;Stockholm;585;59.840363;18.662935;Svanberga, Stockholm;;False
0188TB117;Söderby-Karl;Stockholm;293;59.897693;18.69698;Söderby-Karl, Stockholm;;False
0188TB118;Södersvik;Stockholm;488;59.750116;18.915614;Södersvik, Stockholm;;False
0188TB119;Sättra;Stockholm;339;59.620932;18.439134;Sättra, Stockholm;;False
0188TB120;Älmsta;Stockholm;1513;59.971707;18.803142;Älmsta, Stockholm;;False
0188TC109;Norrtälje;Stockholm;23606;59.759173;18.703747;Norrtälje, Stockholm;;False
0191TB101;Granby;Stockholm;305;59.657562;17.632342;Granby, Stockholm;;False
0191TB103;Rosersberg;Stockholm;1833;59.581732;17.888175;Rosersberg, Stockholm;;False
0191TB104;Sigtuna;Stockholm;10407;59.61652;17.72363;Sigtuna, Stockholm;;False
0191TC102;Märsta;Stockholm;30576;59.625238;17.851567;Märsta, Stockholm;;False
0192TB101;Landfjärden;Stockholm;283;59.035934;17.989155;Landfjärden, Stockholm;;False
0192TB102;Lidatorp och Klövsta;Stockholm;453;58.95809;17.906444;Lidatorp och Klövsta, Stockholm;;False
0192TB104;Sorunda;Stockholm;1251;59.014384;17.82105;Sorunda, Stockholm;;False
0192TB105;Segersäng;Stockholm;801;59.02702;17.929652;Segersäng, Stockholm;;False
0192TB106;Stora Vika;Stockholm;697;58.955646;17.785737;Stora Vika, Stockholm;;False
0192TB109;Ösmo;Stockholm;3988;58.982826;17.896191;Ösmo, Stockholm;;False
0192TC103;Nynäshamn;Stockholm;16447;58.905645;17.947098;Nynäshamn, Stockholm;;False
0305TB104;Krägga;Uppsala;686;59.606041;17.404754;Krägga, Uppsala;;False
0305TB105;Råby;Uppsala;972;59.897716;17.675591;Råby, Uppsala;;False
0305TB108;Söderskogen;Uppsala;389;59.676202;17.595891;Söderskogen, Uppsala;;False
0305TC101;Bålsta;Uppsala;16205;59.56821;17.529364;Bålsta, Uppsala;;False
0319TB102;Marma;Uppsala;309;59.784245;17.83982;Marma, Uppsala;;False
0319TB104;Älvkarleby;Uppsala;1506;60.694577;17.695628;Älvkarleby, Uppsala;;False
0319TC103;Skutskär;Uppsala;6606;60.635222;17.409286;Skutskär, Uppsala;;False
0330TB101;Alsike;Uppsala;5339;59.756626;17.763587;Alsike, Uppsala;;False
0330TB103;Edeby;Uppsala;256;59.811901;17.775823;Edeby, Uppsala;;False
0330TC102;Knivsta;Uppsala;9771;59.743923;17.816204;Knivsta, Uppsala;;False
0331TB101;Harbo;Uppsala;842;60.108367;17.209961;Harbo, Uppsala;;False
0331TB103;Morgongåva;Uppsala;1516;59.933759;16.962697;Morgongåva, Uppsala;;False
0331TB105;Tärnsjö;Uppsala;1179;60.154562;16.92751;Tärnsjö, Uppsala;;False
0331TB106;Vittinge;Uppsala;616;59.904332;17.061062;Vittinge, Uppsala;;False
0331TB107;Östervåla;Uppsala;1850;60.180932;17.178084;Östervåla, Uppsala;;False
0331TC102;Heby;Uppsala;2962;60.066453;17.007221;Heby, Uppsala;;False
0360TB101;Karlholmsbruk;Uppsala;1206;60.52194;17.636231;Karlholmsbruk, Uppsala;;False
0360TB102;Mehedeby;Uppsala;450;60.44591;17.403973;Mehedeby, Uppsala;;False
0360TB103;Månkarbo;Uppsala;664;60.226211;17.466286;Månkarbo, Uppsala;;False
0360TB104;Skärplinge;Uppsala;718;60.474156;17.762776;Skärplinge, Uppsala;;False
0360TB105;Söderfors;Uppsala;1646;60.388132;17.241258;Söderfors, Uppsala;;False
0360TB107;Tobo;Uppsala;619;60.257396;17.656487;Tobo, Uppsala;;False
0360TB108;Upplanda;Uppsala;230;60.202035;17.18022;Upplanda, Uppsala;;False
0360TB109;Örbyhus;Uppsala;2276;60.226932;17.705628;Örbyhus, Uppsala;;False
0360TC106;Tierp;Uppsala;6346;60.342961;17.516839;Tierp, Uppsala;;False
0380TB101;Almunge;Uppsala;946;59.877306;18.046123;Almunge, Uppsala;;False
0380TB102;Björklinge;Uppsala;3418;60.029136;17.551431;Björklinge, Uppsala;;False
0380TB103;Jälla;Uppsala;3116;59.90485;17.716677;Jälla, Uppsala;;False
0380TB104;Vänge;Uppsala;1259;59.858646;17.430238;Vänge, Uppsala;;False
0380TB105;Bälinge;Uppsala;2449;59.948845;17.542984;Bälinge, Uppsala;;False
0380TB108;Funbo;Uppsala;351;59.856784;17.856577;Funbo, Uppsala;;False
0380TB109;Gunsta;Uppsala;1411;59.854163;17.833642;Gunsta, Uppsala;;False
0380TB110;Gåvsta;Uppsala;537;59.94269;17.87557;Gåvsta, Uppsala;;False
0380TB111;Håga;Uppsala;268;59.838302;17.57615;Håga, Uppsala;;False
0380TB112;Järlåsa;Uppsala;594;59.886907;17.200555;Järlåsa, Uppsala;;False
0380TB113;Knutby;Uppsala;702;59.909686;18.266033;Knutby, Uppsala;;False
0380TB114;Läby;Uppsala;252;60.088426;17.555379;Läby, Uppsala;;False
0380TB115;Länna;Uppsala;683;59.878854;17.966069;Länna, Uppsala;;False
0380TB116;Lövstalöt;Uppsala;1424;59.958716;17.577546;Lövstalöt, Uppsala;;False
0380TB118;Ramstalund;Uppsala;336;59.798448;17.442889;Ramstalund, Uppsala;;False
0380TB119;Skyttorp;Uppsala;635;60.080892;17.735795;Skyttorp, Uppsala;;False
0380TB120;Skölsta;Uppsala;1018;59.876284;17.748717;Skölsta, Uppsala;;False
0380TB121;Storvreta;Uppsala;6211;59.956938;17.704209;Storvreta, Uppsala;;False
0380TB122;Sävja;Uppsala;9614;59.811622;17.700561;Sävja, Uppsala;;False
0380TB123;Blackstalund;Uppsala;229;59.963056;17.382621;Blackstalund, Uppsala;;False
0380TB124;Ultuna;Uppsala;3116;59.815944;17.659877;Ultuna, Uppsala;;False
0380TB126;Vattholma;Uppsala;1058;60.01905;17.732792;Vattholma, Uppsala;;False
0380TB127;Ytternäs och Vreta;Uppsala;845;59.775535;17.601377;Ytternäs och Vreta, Uppsala;;False
0380TC125;Uppsala;Uppsala;174982;59.859412;17.64112;Uppsala, Uppsala;;True
0381TB102;Fjärdhundra;Uppsala;935;59.77607;16.917936;Fjärdhundra, Uppsala;;False
0381TB103;Grillby;Uppsala;1175;59.625462;17.259092;Grillby, Uppsala;;False
0381TB105;Hummelsta;Uppsala;930;59.625723;16.948556;Hummelsta, Uppsala;;False
0381TB108;Örsundsbro;Uppsala;1423;59.731978;17.302278;Örsundsbro, Uppsala;;False
0381TB109;Örsundsbro norra;Uppsala;559;59.731978;17.302278;Örsundsbro norra, Uppsala;;False
0381TC101;Enköping;Uppsala;26353;59.635611;17.077856;Enköping, Uppsala;;False
0382TB101;Alunda;Uppsala;2677;60.066453;18.078071;Alunda, Uppsala;;False
0382TB102;Dannemora;Uppsala;243;60.203273;17.859906;Dannemora, Uppsala;;False
0382TB103;Gimo;Uppsala;2811;60.167736;18.188617;Gimo, Uppsala;;False
0382TB104;Hargshamn;Uppsala;284;60.167768;18.484925;Hargshamn, Uppsala;;False
0382TB106;Skoby;Uppsala;247;60.033424;18.029507;Skoby, Uppsala;;False
0382TB107;Öregrund;Uppsala;1571;60.338115;18.442181;Öregrund, Uppsala;;False
0382TB108;Österbybruk;Uppsala;2344;60.195936;17.901448;Österbybruk, Uppsala;;False
0382TC109;Östhammar;Uppsala;4986;60.259016;18.373658;Östhammar, Uppsala;;False
0428TB103;Marmorbyn;Södermanland;373;59.045239;16.069696;Marmorbyn, Södermanland;;False
0428TB104;Läppe;Södermanland;268;59.129561;15.799966;Läppe, Södermanland;;False
0428TC105;Vingåker;Södermanland;4514;59.043372;15.871556;Vingåker, Södermanland;;False
0461TB101;Björnlunda;Södermanland;853;59.066026;17.159785;Björnlunda, Södermanland;;False
0461TB103;Stjärnhov;Södermanland;604;59.080099;17.013662;Stjärnhov, Södermanland;;False
0461TC102;Gnesta;Södermanland;6472;59.048663;17.312548;Gnesta, Södermanland;;False
0480TB102;Bergshammar;Södermanland;920;58.741404;16.912554;Bergshammar, Södermanland;;False
0480TB104;Enstaberga;Södermanland;439;58.751468;16.854532;Enstaberga, Södermanland;;False
0480TB105;Jönåker;Södermanland;620;58.746927;16.725095;Jönåker, Södermanland;;False
0480TB106;Kvegerö;Södermanland;250;58.927495;17.369469;Kvegerö, Södermanland;;False
0480TB108;Nävekvarn;Södermanland;727;58.63006;16.796682;Nävekvarn, Södermanland;;False
0480TB111;Sjösa;Södermanland;491;58.776571;17.086447;Sjösa, Södermanland;;False
0480TB113;Stavsjö;Södermanland;234;58.723851;16.41834;Stavsjö, Södermanland;;False
0480TB114;Stigtomta;Södermanland;1937;58.802763;16.785344;Stigtomta, Södermanland;;False
0480TB115;Svalsta;Södermanland;1140;58.743096;16.875131;Svalsta, Södermanland;;False
0480TB116;Tystberga;Södermanland;890;58.849348;17.234324;Tystberga, Södermanland;;False
0480TB117;Vrena;Södermanland;639;58.860158;16.698263;Vrena, Södermanland;;False
0480TB118;Ålberga;Södermanland;209;58.725042;16.580952;Ålberga, Södermanland;;False
0480TC107;Nyköping;Södermanland;39770;58.754491;17.011814;Nyköping, Södermanland;;True
0481TB101;Inskogen;Södermanland;233;58.687827;17.044937;Inskogen, Södermanland;;False
0481TC102;Oxelösund;Södermanland;11485;58.670016;17.104082;Oxelösund, Södermanland;;False
0482TB101;Bettna;Södermanland;366;58.907255;16.638713;Bettna, Södermanland;;False
0482TB103;Hälleforsnäs;Södermanland;1536;59.151383;16.500051;Hälleforsnäs, Södermanland;;False
0482TB104;Malmköping;Södermanland;1992;59.133138;16.725512;Malmköping, Södermanland;;False
0482TB105;Mellösa;Södermanland;541;59.100733;16.561849;Mellösa, Södermanland;;False
0482TB106;Orrhammar;Södermanland;213;59.08054;16.563566;Orrhammar, Södermanland;;False
0482TB108;Sparreholm;Södermanland;725;59.07163;16.829298;Sparreholm, Södermanland;;False
0482TC102;Flen;Södermanland;6266;59.056782;16.5893;Flen, Södermanland;;False
0483TB101;Bie;Södermanland;513;59.08786;16.21166;Bie, Södermanland;;False
0483TB102;Björkvik;Södermanland;407;58.839772;16.513832;Björkvik, Södermanland;;False
0483TB104;Forssjö;Södermanland;802;58.955414;16.292684;Forssjö, Södermanland;;False
0483TB106;Sköldinge;Södermanland;553;59.031551;16.445463;Sköldinge, Södermanland;;False
0483TB107;Strångsjö;Södermanland;318;58.90536;16.199816;Strångsjö, Södermanland;;False
0483TB109;Äsköping;Södermanland;312;59.147598;16.068838;Äsköping, Södermanland;;False
0483TC105;Katrineholm;Södermanland;23953;59.016346;16.324228;Katrineholm, Södermanland;;False
0484TB103;Bälgviken;Södermanland;229;59.249827;16.460741;Bälgviken, Södermanland;;False
0484TB106;Hällberga;Södermanland;571;59.319095;16.597212;Hällberga, Södermanland;;False
0484TB107;Hällbybrunn;Södermanland;3373;59.390145;16.424177;Hällbybrunn, Södermanland;;False
0484TB109;Kjulaås;Södermanland;933;59.387697;16.677549;Kjulaås, Södermanland;;False
0484TB111;Skiftinge;Södermanland;4921;59.389915;16.538067;Skiftinge, Södermanland;;False
0484TB112;Sundbyholm;Södermanland;1108;59.438272;16.619871;Sundbyholm, Södermanland;;False
0484TB113;Torshälla;Södermanland;9167;59.419243;16.474944;Torshälla, Södermanland;;False
0484TB115;Tumbo;Södermanland;347;59.429688;16.339888;Tumbo, Södermanland;;False
0484TB118;Ärla;Södermanland;1244;59.282521;16.676984;Ärla, Södermanland;;False
0484TC104;Eskilstuna;Södermanland;70646;59.371737;16.505147;Eskilstuna, Södermanland;;False
0486TB103;Härad;Södermanland;683;59.361288;16.901567;Härad, Södermanland;;False
0486TB104;Kalkudden;Södermanland;272;59.265052;17.282932;Kalkudden, Södermanland;;False
0486TB106;Mariefred;Södermanland;4277;59.259945;17.222948;Mariefred, Södermanland;;False
0486TB107;Merlänna;Södermanland;393;59.280796;16.980532;Merlänna, Södermanland;;False
0486TB108;Stallarholmen;Södermanland;2141;59.361279;17.207143;Stallarholmen, Södermanland;;False
0486TB112;Åkers styckebruk;Södermanland;2984;59.256441;17.108021;Åkers styckebruk, Södermanland;;False
0486TC109;Strängnäs;Södermanland;15369;59.349601;17.081336;Strängnäs, Södermanland;;False
0488TB103;Vagnhärad;Södermanland;4109;58.94688;17.495592;Vagnhärad, Södermanland;;False
0488TB105;Västerljung;Södermanland;378;58.921333;17.447492;Västerljung, Södermanland;;False
0488TC102;Trosa;Södermanland;7540;58.896705;17.547811;Trosa, Södermanland;;False
0509TC103;Ödeshög;Östergötland;2646;58.224593;14.662207;Ödeshög, Östergötland;;False
0512TB102;Hestra;Östergötland;437;57.95;15.066667;Hestra, Östergötland;;False
0512TB103;Rydsnäs;Östergötland;286;57.800021;15.146572;Rydsnäs, Östergötland;;False
0512TC104;Österbymo;Östergötland;862;57.824795;15.275396;Österbymo, Östergötland;;False
0513TB103;Rimforsa;Östergötland;2291;58.137829;15.676202;Rimforsa, Östergötland;;False
0513TC102;Kisa;Östergötland;3746;57.98782;15.631767;Kisa, Östergötland;;False
0560TB102;Strålsnäs;Östergötland;391;58.237724;15.091668;Strålsnäs, Östergötland;;False
0560TC101;Boxholm;Östergötland;3391;58.132595;15.127738;Boxholm, Östergötland;;False
0561TB103;Falerum;Östergötland;239;58.143713;16.206315;Falerum, Östergötland;;False
0561TB104;Grebo;Östergötland;1099;58.302142;15.871671;Grebo, Östergötland;;False
0561TC105;Åtvidaberg;Östergötland;6963;58.217336;16.140217;Åtvidaberg, Östergötland;;False
0562TB101;Borggård;Östergötland;256;58.730203;15.55899;Borggård, Östergötland;;False
0562TB102;Falla;Östergötland;410;58.682822;15.74651;Falla, Östergötland;;False
0562TB104;Grytgöl;Östergötland;285;58.801861;15.555081;Grytgöl, Östergötland;;False
0562TB107;Igelfors;Östergötland;244;58.845527;15.696952;Igelfors, Östergötland;;False
0562TB108;Ljusfallshammar;Östergötland;313;58.788109;15.493705;Ljusfallshammar, Östergötland;;False
0562TB109;Lotorp;Östergötland;699;58.7341;15.827684;Lotorp, Östergötland;;False
0562TB110;Butbro;Östergötland;263;58.716322;15.834455;Butbro, Östergötland;;False
0562TB111;Rejmyre;Östergötland;862;58.830057;15.931366;Rejmyre, Östergötland;;False
0562TB112;Sonstorp;Östergötland;410;58.72462;15.634397;Sonstorp, Östergötland;;False
0562TC103;Finspång;Östergötland;13186;58.70773;15.775864;Finspång, Östergötland;;False
0563TB102;Gusum;Östergötland;1063;58.273342;16.501596;Gusum, Östergötland;;False
0563TB103;Ringarum;Östergötland;585;58.333783;16.44443;Ringarum, Östergötland;;False
0563TC104;Valdemarsvik;Östergötland;2655;58.20259;16.603219;Valdemarsvik, Östergötland;;False
0580TB101;Askeby;Östergötland;506;58.406696;15.871683;Askeby, Östergötland;;False
0580TB102;Bankekind;Östergötland;503;58.36145;15.853222;Bankekind, Östergötland;;False
0580TB104;Bestorp;Östergötland;490;58.233475;15.733218;Bestorp, Östergötland;;False
0580TB105;Brokind;Östergötland;583;58.218153;15.681462;Brokind, Östergötland;;False
0580TB107;Gistad;Östergötland;296;58.458106;15.927406;Gistad, Östergötland;;False
0580TB109;Kränge;Östergötland;257;58.440932;15.468802;Kränge, Östergötland;;False
0580TB110;Linghem;Östergötland;3155;58.429082;15.78718;Linghem, Östergötland;;False
0580TB112;Ljungsbro;Östergötland;7215;58.508132;15.502618;Ljungsbro, Östergötland;;False
0580TB113;Malmslätt;Östergötland;4886;58.416735;15.516966;Malmslätt, Östergötland;;False
0580TB114;Nykil;Östergötland;402;58.22165;15.5007;Nykil, Östergötland;;False
0580TB115;Rappestad;Östergötland;281;58.410335;15.420873;Rappestad, Östergötland;;False
0580TB116;Sjögestad;Östergötland;278;58.361545;15.369854;Sjögestad, Östergötland;;False
0580TB117;Skeda udde;Östergötland;426;58.291674;15.559967;Skeda udde, Östergötland;;False
0580TB118;Slaka;Östergötland;573;58.359696;15.553717;Slaka, Östergötland;;False
0580TB119;Sturefors;Östergötland;3438;58.33674;15.721157;Sturefors, Östergötland;;False
0580TB120;Tallboda;Östergötland;3258;58.430858;15.68659;Tallboda, Östergötland;;False
0580TB122;Vikingstad;Östergötland;2734;58.383241;15.433245;Vikingstad, Östergötland;;False
0580TB123;Västerlösa;Östergötland;229;58.422555;15.350139;Västerlösa, Östergötland;;False
0580TC111;Linköping;Östergötland;116851;58.409813;15.624525;Linköping, Östergötland;;True
0581TB102;Berga;Östergötland;268;58.598056;16.252222;Berga, Östergötland;;False
0581TB103;Eksund;Östergötland;497;58.585982;16.091887;Eksund, Östergötland;;False
0581TB105;Djurön;Östergötland;318;58.629273;16.347165;Djurön, Östergötland;;False
0581TB106;Graversfors;Östergötland;650;58.696832;16.150096;Graversfors, Östergötland;;False
0581TB107;Herstadberg;Östergötland;238;58.628076;16.175319;Herstadberg, Östergötland;;False
0581TB109;Kimstad;Östergötland;1603;58.548921;15.968906;Kimstad, Östergötland;;False
0581TB110;Krokek;Östergötland;5125;58.67498;16.365736;Krokek, Östergötland;;False
0581TB113;Ljunga;Östergötland;745;58.577125;16.307637;Ljunga, Östergötland;;False
0581TB117;Norsholm;Östergötland;548;58.506293;15.974581;Norsholm, Östergötland;;False
0581TB118;Simonstorp;Östergötland;261;58.786108;16.154592;Simonstorp, Östergötland;;False
0581TB120;Skärblacka;Östergötland;4068;58.575892;15.923;Skärblacka, Östergötland;;False
0581TB122;Svärtinge;Östergötland;4772;58.650264;16.029186;Svärtinge, Östergötland;;False
0581TB124;Åby;Östergötland;7173;58.662148;16.175925;Åby, Östergötland;;False
0581TB124;Åby;Östergötland;7173;58.662148;16.175925;Åby, Östergötland;;False
0581TB126;Öbonäs;Östergötland;665;58.540714;16.183652;Öbonäs, Östergötland;;False
0581TB127;Östra Husby;Östergötland;906;58.5769;16.563881;Östra Husby, Östergötland;;False
0581TC116;Norrköping;Östergötland;98229;58.590912;16.190351;Norrköping, Östergötland;;False
0582TB101;Luddingsbo;Östergötland;212;58.507934;16.137539;Luddingsbo, Östergötland;;False
0582TB102;Snöveltorp;Östergötland;491;58.500942;16.161604;Snöveltorp, Östergötland;;False
0582TB103;Mogata;Östergötland;399;58.451127;16.451785;Mogata, Östergötland;;False
0582TB105;Västra Husby;Östergötland;483;58.486862;16.172054;Västra Husby, Östergötland;;False
0582TB106;Östra Ryd;Östergötland;439;58.404927;16.164527;Östra Ryd, Östergötland;;False
0582TC104;Söderköping;Östergötland;7617;58.48238;16.321622;Söderköping, Östergötland;;False
0583TB101;Borensberg;Östergötland;3119;58.565658;15.280218;Borensberg, Östergötland;;False
0583TB102;Fornåsa;Östergötland;465;58.479116;15.227964;Fornåsa, Östergötland;;False
0583TB105;Klockrike;Östergötland;263;58.496565;15.338339;Klockrike, Östergötland;;False
0583TB108;Tjällmo;Östergötland;487;58.71515;15.354501;Tjällmo, Östergötland;;False
0583TB109;Västanvik;Östergötland;210;58.68333;14.93333;Västanvik, Östergötland;;False
0583TB110;Österstad;Östergötland;325;58.519297;15.176064;Österstad, Östergötland;;False
0583TC106;Motala;Östergötland;31367;58.542039;15.041261;Motala, Östergötland;;False
0584TC102;Vadstena;Östergötland;5802;58.431081;14.780762;Vadstena, Östergötland;;False
0586TB101;Hogstad;Östergötland;252;58.330768;15.026194;Hogstad, Östergötland;;False
0586TB102;Mantorp;Östergötland;4260;58.354314;15.288493;Mantorp, Östergötland;;False
0586TB104;Skänninge;Östergötland;3374;58.39558;15.08677;Skänninge, Östergötland;;False
0586TB105;Spångsholm;Östergötland;282;58.352508;15.236179;Spångsholm, Östergötland;;False
0586TB106;Sya;Östergötland;287;58.334732;15.223077;Sya, Östergötland;;False
0586TB107;Väderstad;Östergötland;544;58.311435;14.923643;Väderstad, Östergötland;;False
0586TC103;Mjölby;Östergötland;14282;58.295391;15.179064;Mjölby, Östergötland;;False
0604TB102;Frinnaryd;Jönköping;220;57.934088;14.820862;Frinnaryd, Jönköping;;False
0604TC101;Aneby;Jönköping;3653;57.874561;14.75443;Aneby, Jönköping;;False
0617TB102;Hillerstorp;Jönköping;1660;57.314476;13.891287;Hillerstorp, Jönköping;;False
0617TB105;Nissafors;Jönköping;293;57.407874;13.637141;Nissafors, Jönköping;;False
0617TC101;Gnosjö;Jönköping;4251;57.358565;13.788214;Gnosjö, Jönköping;;False
0642TC101;Mullsjö;Jönköping;5858;57.942325;13.816638;Mullsjö, Jönköping;;False
0643TB102;Fagerhult;Jönköping;329;57.816667;13.933333;Fagerhult, Jönköping;;False
0643TB103;Furusjö;Jönköping;339;57.93029;13.960971;Furusjö, Jönköping;;False
0643TC104;Habo;Jönköping;9499;57.975174;14.065819;Habo, Jönköping;;False
0662TB101;Anderstorp;Jönköping;5026;57.282982;13.636821;Anderstorp, Jönköping;;False
0662TB102;Broaryd;Jönköping;275;57.120231;13.258352;Broaryd, Jönköping;;False
0662TB103;Burseryd;Jönköping;899;57.375451;14.789713;Burseryd, Jönköping;;False
0662TB105;Hestra;Jönköping;1343;57.446111;13.594167;Hestra, Jönköping;;False
0662TB106;Reftele;Jönköping;1293;57.175757;13.592978;Reftele, Jönköping;;False
0662TB107;Skeppshult;Jönköping;360;57.126356;13.361951;Skeppshult, Jönköping;;False
0662TB108;Smålandsstenar;Jönköping;4504;57.162696;13.411558;Smålandsstenar, Jönköping;;False
0662TC104;Gislaved;Jönköping;10029;57.293072;13.492229;Gislaved, Jönköping;;False
0665TB102;Hok;Jönköping;686;57.51721;14.274435;Hok, Jönköping;;False
0665TB103;Klevshult;Jönköping;279;57.355188;14.10138;Klevshult, Jönköping;;False
0665TC104;Skillingaryd;Jönköping;4261;57.428947;14.091985;Skillingaryd, Jönköping;;False
0665TC105;Vaggeryd;Jönköping;5761;57.498057;14.148478;Vaggeryd, Jönköping;;False
0680TB101;Bankeryd;Jönköping;8997;57.863142;14.127853;Bankeryd, Jönköping;;False
0680TB103;Bottnaryd;Jönköping;816;57.769513;13.826133;Bottnaryd, Jönköping;;False
0680TB104;Ölmstad;Jönköping;496;57.926612;14.397633;Ölmstad, Jönköping;;False
0680TB106;Gränna;Jönköping;2649;58.025058;14.467314;Gränna, Jönköping;;False
0680TB108;Kaxholmen;Jönköping;1898;57.854004;14.307587;Kaxholmen, Jönköping;;False
0680TB109;Kortebo;Jönköping;1179;57.814875;14.145419;Kortebo, Jönköping;;False
0680TB110;Lekeryd;Jönköping;820;57.773366;14.418215;Lekeryd, Jönköping;;False
0680TB113;Skärstad;Jönköping;513;57.888091;14.364036;Skärstad, Jönköping;;False
0680TB114;Taberg;Jönköping;5010;57.678947;14.091865;Taberg, Jönköping;;False
0680TB115;Tenhult;Jönköping;3053;57.706654;14.321033;Tenhult, Jönköping;;False
0680TB117;Tunnerstad;Jönköping;334;58.047598;14.337399;Tunnerstad, Jönköping;;False
0680TB118;Öggestorp;Jönköping;246;57.723374;14.383571;Öggestorp, Jönköping;;False
0680TB119;Örserum;Jönköping;373;58.010109;14.572033;Örserum, Jönköping;;False
0680TC107;Jönköping;Jönköping;103032;57.78147;14.162757;Jönköping, Jönköping;;True
0682TB102;Bodafors;Jönköping;1902;57.505262;14.703379;Bodafors, Jönköping;;False
0682TB104;Forserum;Jönköping;2153;57.699733;14.472352;Forserum, Jönköping;;False
0682TB106;Grimstorp;Jönköping;345;57.499859;14.442429;Grimstorp, Jönköping;;False
0682TB109;Ormaryd;Jönköping;223;57.666574;14.83086;Ormaryd, Jönköping;;False
0682TB111;Solberga;Jönköping;376;57.733333;14.75;Solberga, Jönköping;;False
0682TB112;Stensjön;Jönköping;204;57.581899;14.820178;Stensjön, Jönköping;;False
0682TB113;Äng;Jönköping;293;57.695571;14.56667;Äng, Jönköping;;False
0682TC108;Nässjö;Jönköping;18639;57.653037;14.698155;Nässjö, Jönköping;;False
0683TB101;Bor;Jönköping;1277;57.117835;14.156708;Bor, Jönköping;;False
0683TB102;Bredaryd;Jönköping;1497;57.174104;13.738937;Bredaryd, Jönköping;;False
0683TB103;Forsheda;Jönköping;1431;57.167855;13.830136;Forsheda, Jönköping;;False
0683TB104;Horda;Jönköping;360;57.037367;14.258215;Horda, Jönköping;;False
0683TB106;Kärda;Jönköping;309;57.171295;13.921352;Kärda, Jönköping;;False
0683TB107;Lanna;Jönköping;344;57.223516;13.777647;Lanna, Jönköping;;False
0683TB108;Rydaholm;Jönköping;1477;56.987188;14.309857;Rydaholm, Jönköping;;False
0683TC110;Värnamo;Jönköping;20273;57.185213;14.041217;Värnamo, Jönköping;;False
0684TB102;Stockaryd;Jönköping;1031;57.319595;14.591119;Stockaryd, Jönköping;;False
0684TB104;Vrigstad;Jönköping;1477;57.354616;14.474132;Vrigstad, Jönköping;;False
0684TC103;Sävsjö;Jönköping;5581;57.317287;14.612718;Sävsjö, Jönköping;;False
0685TB101;Björköby;Jönköping;324;57.519216;14.905918;Björköby, Jönköping;;False
0685TB102;Ekenässjön;Jönköping;1615;57.491838;15.020954;Ekenässjön, Jönköping;;False
0685TB103;Holsbybrunn;Jönköping;784;57.437279;15.199514;Holsbybrunn, Jönköping;;False
0685TB104;Kvillsfors;Jönköping;444;57.403087;15.497728;Kvillsfors, Jönköping;;False
0685TB105;Landsbro;Jönköping;1408;57.36962;14.90132;Landsbro, Jönköping;;False
0685TB106;Myresjö;Jönköping;696;57.384661;14.966436;Myresjö, Jönköping;;False
0685TB109;Sjunnen;Jönköping;397;57.435987;15.172909;Sjunnen, Jönköping;;False
0685TB112;Korsberga;Jönköping;707;57.3025;15.125278;Korsberga, Jönköping;;False
0685TC111;Vetlanda;Jönköping;13895;57.426017;15.087022;Vetlanda, Jönköping;;False
0686TB101;Bruzaholm;Jönköping;246;57.642463;15.27197;Bruzaholm, Jönköping;;False
0686TB103;Hjältevad;Jönköping;334;57.6291;15.343187;Hjältevad, Jönköping;;False
0686TB106;Mariannelund;Jönköping;1518;57.615689;15.580343;Mariannelund, Jönköping;;False
0686TC102;Eksjö;Jönköping;11077;57.667443;14.973559;Eksjö, Jönköping;;False
0687TB101;Gripenberg;Jönköping;260;57.993278;14.853253;Gripenberg, Jönköping;;False
0687TC104;Tranås;Jönköping;14611;58.039262;14.825735;Tranås, Jönköping;;False
0760TB101;Alstermo;Kronoberg;845;56.974271;15.65268;Alstermo, Kronoberg;;False
0760TB103;Lenhovda;Kronoberg;1694;56.99777;15.284947;Lenhovda, Kronoberg;;False
0760TB104;Norrhult-Klavreström;Kronoberg;1184;57.127551;15.162189;Norrhult-Klavreström, Kronoberg;;False
0760TC105;Åseda;Kronoberg;2713;57.169126;15.352502;Åseda, Kronoberg;;False
0761TB101;Hovmantorp;Kronoberg;3208;56.789422;15.134665;Hovmantorp, Kronoberg;;False
0761TB102;Kosta;Kronoberg;836;56.847541;15.394082;Kosta, Kronoberg;;False
0761TB104;Skruv;Kronoberg;485;57.158718;15.164831;Skruv, Kronoberg;;False
0761TC103;Lessebo;Kronoberg;2881;56.756624;15.26795;Lessebo, Kronoberg;;False
0763TB103;Konga;Kronoberg;441;56.497917;15.121524;Konga, Kronoberg;;False
0763TB104;Linneryd;Kronoberg;449;56.660845;15.124572;Linneryd, Kronoberg;;False
0763TB106;Rävemåla;Kronoberg;302;56.556264;15.264463;Rävemåla, Kronoberg;;False
0763TB108;Urshult;Kronoberg;924;56.53176;14.8141;Urshult, Kronoberg;;False
0763TB109;Väckelsång;Kronoberg;946;56.640268;14.917505;Väckelsång, Kronoberg;;False
0763TC107;Tingsryd;Kronoberg;3164;56.527906;14.977188;Tingsryd, Kronoberg;;False
0764TB102;Grimslöv;Kronoberg;597;56.738893;14.542548;Grimslöv, Kronoberg;;False
0764TB103;Hjortsberga;Kronoberg;252;56.914297;14.453907;Hjortsberga, Kronoberg;;False
0764TB104;Moheda;Kronoberg;1836;57.004355;14.572811;Moheda, Kronoberg;;False
0764TB105;Torpsbruk;Kronoberg;308;57.034375;14.571008;Torpsbruk, Kronoberg;;False
0764TB106;Vislanda;Kronoberg;1809;56.787226;14.451583;Vislanda, Kronoberg;;False
0764TC101;Alvesta;Kronoberg;9172;56.863826;14.44793;Alvesta, Kronoberg;;False
0765TB103;Eneryda;Kronoberg;305;56.703808;14.338377;Eneryda, Kronoberg;;False
0765TC106;Älmhult;Kronoberg;11053;56.551288;14.139176;Älmhult, Kronoberg;;False
0767TB102;Strömsnäsbruk;Kronoberg;2216;56.552468;13.731973;Strömsnäsbruk, Kronoberg;;False
0767TB104;Traryd;Kronoberg;659;56.579041;13.752695;Traryd, Kronoberg;;False
0767TC101;Markaryd;Kronoberg;5085;56.459613;13.591983;Markaryd, Kronoberg;;False
0780TB102;Braås;Kronoberg;1633;57.059792;15.048356;Braås, Kronoberg;;False
0780TB103;Furuby;Kronoberg;416;56.853366;15.031764;Furuby, Kronoberg;;False
0780TB104;Gemla;Kronoberg;1081;56.870036;14.648903;Gemla, Kronoberg;;False
0780TB105;Ingelstad;Kronoberg;1863;56.740857;14.929001;Ingelstad, Kronoberg;;False
0780TB106;Lammhult;Kronoberg;1600;57.168903;14.580559;Lammhult, Kronoberg;;False
0780TB107;Nöbbele;Kronoberg;237;56.695892;15.022591;Nöbbele, Kronoberg;;False
0780TB108;Rottne;Kronoberg;2465;57.021676;14.8921;Rottne, Kronoberg;;False
0780TB109;Tävelsås;Kronoberg;382;56.769892;14.823869;Tävelsås, Kronoberg;;False
0780TC110;Växjö;Kronoberg;74052;56.878718;14.809438;Växjö, Kronoberg;;True
0781TB102;Angelstad;Kronoberg;238;56.827591;13.763888;Angelstad, Kronoberg;;False
0781TB103;Kånna;Kronoberg;312;56.781805;13.903944;Kånna, Kronoberg;;False
0781TB105;Lidhult;Kronoberg;615;56.827578;13.440539;Lidhult, Kronoberg;;False
0781TB107;Ryssby;Kronoberg;744;56.864492;14.167912;Ryssby, Kronoberg;;False
0781TB108;Vittaryd;Kronoberg;305;56.970755;13.946791;Vittaryd, Kronoberg;;False
0781TC106;Ljungby;Kronoberg;16076;56.832588;13.935991;Ljungby, Kronoberg;;False
0821TB101;Berga;Kalmar;655;57.216667;16.033333;Berga, Kalmar;;False
0821TB103;Fågelfors;Kalmar;368;57.20738;15.843661;Fågelfors, Kalmar;;False
0821TC105;Högsby;Kalmar;1872;57.113119;15.880439;Högsby, Kalmar;;False
0834TB101;Bergkvara;Kalmar;1129;56.39075;16.070362;Bergkvara, Kalmar;;False
0834TB102;Söderåkra;Kalmar;940;56.446032;16.070616;Söderåkra, Kalmar;;False
0834TC103;Torsås;Kalmar;1967;56.412408;16.003073;Torsås, Kalmar;;False
0840TB101;Algutsrum;Kalmar;866;56.679426;16.529795;Algutsrum, Kalmar;;False
0840TB103;Degerhamn;Kalmar;289;56.355521;16.411009;Degerhamn, Kalmar;;False
0840TB104;Färjestaden;Kalmar;6674;56.65171;16.472174;Färjestaden, Kalmar;;False
0840TB107;Gårdby;Kalmar;261;56.604353;16.642559;Gårdby, Kalmar;;False
0840TB108;Kastlösa;Kalmar;222;56.459838;16.428953;Kastlösa, Kalmar;;False
0840TB113;Vickleby;Kalmar;488;56.581931;16.458896;Vickleby, Kalmar;;False
0840TC109;Mörbylånga;Kalmar;1809;56.524963;16.379998;Mörbylånga, Kalmar;;False
0860TB102;Järnforsen;Kalmar;423;57.408473;15.621071;Järnforsen, Kalmar;;False
0860TB104;Målilla;Kalmar;1461;57.387601;15.812169;Målilla, Kalmar;;False
0860TB105;Mörlunda;Kalmar;848;57.323302;15.865313;Mörlunda, Kalmar;;False
0860TB106;Rosenfors;Kalmar;267;57.362821;15.839269;Rosenfors, Kalmar;;False
0860TB107;Silverdalen;Kalmar;642;57.543427;15.747964;Silverdalen, Kalmar;;False
0860TB109;Virserum;Kalmar;1698;57.316854;15.586853;Virserum, Kalmar;;False
0860TC101;Hultsfred;Kalmar;5614;57.394793;15.775161;Hultsfred, Kalmar;;False
0861TB101;Blomstermåla;Kalmar;2249;56.98457;16.328683;Blomstermåla, Kalmar;;False
0861TB103;Fliseryd;Kalmar;710;57.124107;16.263129;Fliseryd, Kalmar;;False
0861TB105;Oknö;Kalmar;337;56.998086;16.503481;Oknö, Kalmar;;False
0861TB106;Timmernabben;Kalmar;1423;56.970307;16.43421;Timmernabben, Kalmar;;False
0861TC104;Mönsterås;Kalmar;5127;57.042955;16.444801;Mönsterås, Kalmar;;False
0862TB106;Vissefjärda;Kalmar;601;56.535523;15.586146;Vissefjärda, Kalmar;;False
0862TC102;Emmaboda;Kalmar;4788;56.630833;15.540661;Emmaboda, Kalmar;;False
0880TB102;Dunö;Kalmar;416;56.634091;16.265794;Dunö, Kalmar;;False
0880TB104;Halltorp;Kalmar;248;56.499708;16.103074;Halltorp, Kalmar;;False
0880TB106;Lindsdal;Kalmar;6061;56.733926;16.297433;Lindsdal, Kalmar;;False
0880TB107;Ljungbyholm;Kalmar;2008;56.633975;16.168375;Ljungbyholm, Kalmar;;False
0880TB108;Läckeby;Kalmar;940;56.782908;16.294941;Läckeby, Kalmar;;False
0880TB109;Påryd;Kalmar;655;56.568072;15.926524;Påryd, Kalmar;;False
0880TB110;Rinkabyholm;Kalmar;1642;56.654593;16.261189;Rinkabyholm, Kalmar;;False
0880TB111;Rockneby;Kalmar;974;56.804297;16.349063;Rockneby, Kalmar;;False
0880TB113;Drag;Kalmar;667;56.779433;16.420263;Drag, Kalmar;;False
0880TB114;Trekanten;Kalmar;1559;56.699905;16.11671;Trekanten, Kalmar;;False
0880TB115;Tvärskog;Kalmar;396;56.623633;16.041255;Tvärskog, Kalmar;;False
0880TB116;Vassmolösa;Kalmar;530;56.598532;16.164912;Vassmolösa, Kalmar;;False
0880TB117;Åmunnen;Kalmar;380;56.627696;16.236805;Åmunnen, Kalmar;;False
0880TC105;Kalmar;Kalmar;42622;56.662882;16.366238;Kalmar, Kalmar;;True
0881TB101;Alsterbro;Kalmar;419;56.940257;15.913943;Alsterbro, Kalmar;;False
0881TB102;Bäckebo;Kalmar;232;56.88922;16.065362;Bäckebo, Kalmar;;False
0881TB104;Flygsfors;Kalmar;206;56.839391;15.779186;Flygsfors, Kalmar;;False
0881TB105;Kristvallabrunn;Kalmar;213;56.777766;16.053326;Kristvallabrunn, Kalmar;;False
0881TB108;Orrefors;Kalmar;663;56.839478;15.748617;Orrefors, Kalmar;;False
0881TC107;Nybro;Kalmar;13584;56.745225;15.906154;Nybro, Kalmar;;False
0882TB101;Bockara;Kalmar;334;57.261836;16.065139;Bockara, Kalmar;;False
0882TB103;Figeholm;Kalmar;784;57.376711;16.552266;Figeholm, Kalmar;;False
0882TB104;Fårbo;Kalmar;474;57.383971;16.484591;Fårbo, Kalmar;;False
0882TB105;Kristdala;Kalmar;926;57.400567;16.197434;Kristdala, Kalmar;;False
0882TB109;Påskallavik;Kalmar;1118;57.162953;16.459455;Påskallavik, Kalmar;;False
0882TC108;Oskarshamn;Kalmar;18817;57.263281;16.444347;Oskarshamn, Kalmar;;False
0883TB102;Ankarsrum;Kalmar;1207;57.700892;16.334361;Ankarsrum, Kalmar;;False
0883TB104;Edsbruk;Kalmar;281;58.019577;16.467459;Edsbruk, Kalmar;;False
0883TB105;Gamleby;Kalmar;2759;57.899823;16.408256;Gamleby, Kalmar;;False
0883TB106;Gunnebo;Kalmar;1019;57.722421;16.527503;Gunnebo, Kalmar;;False
0883TB107;Hjorted;Kalmar;340;57.62059;16.30301;Hjorted, Kalmar;;False
0883TB109;Loftahammar;Kalmar;425;57.904348;16.693118;Loftahammar, Kalmar;;False
0883TB110;Piperskärr;Kalmar;687;57.778491;16.633994;Piperskärr, Kalmar;;False
0883TB111;Totebo;Kalmar;223;57.631865;16.182809;Totebo, Kalmar;;False
0883TB113;Överum;Kalmar;1096;57.988748;16.314315;Överum, Kalmar;;False
0883TC112;Västervik;Kalmar;21615;57.759418;16.638503;Västervik, Kalmar;;False
0884TB101;Frödinge;Kalmar;302;57.699586;16.005047;Frödinge, Kalmar;;False
0884TB102;Gullringen;Kalmar;465;57.800057;15.717278;Gullringen, Kalmar;;False
0884TB105;Södra Vi;Kalmar;1117;57.741455;15.796053;Södra Vi, Kalmar;;False
0884TB106;Tuna;Kalmar;235;57.5766;16.1052;Tuna, Kalmar;;False
0884TC107;Vimmerby;Kalmar;8176;57.678134;15.791723;Vimmerby, Kalmar;;False
0885TB103;Rälla;Kalmar;425;56.774459;16.571886;Rälla, Kalmar;;False
0885TB105;Löttorp;Kalmar;564;57.166116;16.996494;Löttorp, Kalmar;;False
0885TC102;Borgholm;Kalmar;4280;56.879927;16.656137;Borgholm, Kalmar;;False
0980TB101;Burgsvik;Gotland;322;57.033211;18.276696;Burgsvik, Gotland;;False
0980TB102;Fårösund;Gotland;883;57.863033;19.05089;Fårösund, Gotland;;False
0980TB104;Havdhem;Gotland;268;57.1616;18.332037;Havdhem, Gotland;;False
0980TB105;Hemse;Gotland;1752;57.240149;18.380019;Hemse, Gotland;;False
0980TB107;Klintehamn;Gotland;1539;57.386394;18.202844;Klintehamn, Gotland;;False
0980TB109;Lärbro;Gotland;466;57.785162;18.790637;Lärbro, Gotland;;False
0980TB111;Romakloster;Gotland;1347;57.507393;18.450613;Romakloster, Gotland;;False
0980TB113;Slite;Gotland;1405;57.70722;18.801919;Slite, Gotland;;False
0980TB115;Stånga;Gotland;335;57.281454;18.471394;Stånga, Gotland;;False
0980TB116;Tingstäde;Gotland;249;57.735759;18.613689;Tingstäde, Gotland;;False
0980TB117;Tofta;Gotland;895;57.520806;18.168597;Tofta, Gotland;;False
0980TB118;Vibble;Gotland;1792;57.603836;18.249661;Vibble, Gotland;;False
0980TB120;Väskinde;Gotland;361;57.691178;18.420183;Väskinde, Gotland;;False
0980TB121;Västerhejde;Gotland;651;57.585592;18.227334;Västerhejde, Gotland;;False
0980TC119;Visby;Gotland;26305;57.637936;18.297982;Visby, Gotland;;True
1060TB101;Gränum;Blekinge;250;56.229872;14.606554;Gränum, Blekinge;;False
1060TB102;Jämshög;Blekinge;1533;56.241287;14.531979;Jämshög, Blekinge;;False
1060TB105;Vilshult;Blekinge;268;56.354337;14.482624;Vilshult, Blekinge;;False
1060TC104;Olofström;Blekinge;7628;56.278997;14.533325;Olofström, Blekinge;;False
1080TB103;Fridlevstad;Blekinge;697;56.269795;15.542106;Fridlevstad, Blekinge;;False
1080TB104;Fågelmara;Blekinge;366;56.260068;15.947508;Fågelmara, Blekinge;;False
1080TB105;Gängletorp;Blekinge;797;56.170836;15.73994;Gängletorp, Blekinge;;False
1080TB106;Hasslö;Blekinge;1704;56.109771;15.465959;Hasslö, Blekinge;;False
1080TB107;Holmsjö;Blekinge;357;56.420251;15.538952;Holmsjö, Blekinge;;False
1080TB108;Jämjö;Blekinge;2674;56.190848;15.840349;Jämjö, Blekinge;;False
1080TB110;Kättilsmåla;Blekinge;251;56.269177;15.736483;Kättilsmåla, Blekinge;;False
1080TB111;Nättraby;Blekinge;3338;56.205946;15.530474;Nättraby, Blekinge;;False
1080TB112;Nävragöl;Blekinge;234;56.375172;15.565153;Nävragöl, Blekinge;;False
1080TB113;Ramdala;Blekinge;253;56.183646;15.766504;Ramdala, Blekinge;;False
1080TB114;Rödeby;Blekinge;3473;56.257432;15.618547;Rödeby, Blekinge;;False
1080TB115;Skavkulla och Skillingenäs;Blekinge;885;56.178442;15.518659;Skavkulla och Skillingenäs, Blekinge;;False
1080TB116;Sturkö;Blekinge;1372;56.098674;15.664782;Sturkö, Blekinge;;False
1080TB117;Sjuhalla;Blekinge;227;56.188899;15.56228;Sjuhalla, Blekinge;;False
1080TB118;Spjutsbygd;Blekinge;364;56.31133;15.595431;Spjutsbygd, Blekinge;;False
1080TB119;Torhamn;Blekinge;544;56.095268;15.831092;Torhamn, Blekinge;;False
1080TB120;Tving;Blekinge;545;56.31028;15.462932;Tving, Blekinge;;False
1080TC109;Karlskrona;Blekinge;36423;56.162107;15.586642;Karlskrona, Blekinge;;True
1081TB101;Backaryd;Blekinge;347;56.347209;15.154482;Backaryd, Blekinge;;False
1081TB102;Bräkne-Hoby;Blekinge;1704;56.22856;15.11694;Bräkne-Hoby, Blekinge;;False
1081TB103;Eringsboda;Blekinge;288;56.440125;15.362501;Eringsboda, Blekinge;;False
1081TB104;Hallabro;Blekinge;242;56.390162;15.102686;Hallabro, Blekinge;;False
1081TB105;Johannishus;Blekinge;786;56.226857;15.420548;Johannishus, Blekinge;;False
1081TB106;Kallinge;Blekinge;4579;56.24561;15.287237;Kallinge, Blekinge;;False
1081TB108;Listerby;Blekinge;1073;56.196403;15.402268;Listerby, Blekinge;;False
1081TB110;Ronnebyhamn;Blekinge;803;56.174054;15.292186;Ronnebyhamn, Blekinge;;False
1081TC109;Ronneby;Blekinge;12636;56.210041;15.276035;Ronneby, Blekinge;;False
1082TB103;Mörrum;Blekinge;3913;56.192516;14.751521;Mörrum, Blekinge;;False
1082TB104;Svängsta;Blekinge;1924;56.26198;14.774798;Svängsta, Blekinge;;False
1082TB107;Åryd;Blekinge;317;57.954798;13.65065;Åryd, Blekinge;;False
1082TC102;Karlshamn;Blekinge;19966;56.170172;14.863127;Karlshamn, Blekinge;;False
1083TB102;Hällevik;Blekinge;1485;56.013781;14.696968;Hällevik, Blekinge;;False
1083TB103;Hörvik;Blekinge;808;56.040496;14.76519;Hörvik, Blekinge;;False
1083TB104;Lörby;Blekinge;263;56.071259;14.696498;Lörby, Blekinge;;False
1083TB105;Mjällby;Blekinge;1379;56.047083;14.678027;Mjällby, Blekinge;;False
1083TB107;Norje;Blekinge;911;56.122104;14.668745;Norje, Blekinge;;False
1083TB108;Pukavik;Blekinge;364;56.167715;14.683124;Pukavik, Blekinge;;False
1083TB111;Ysane;Blekinge;211;56.088968;14.649451;Ysane, Blekinge;;False
1083TC109;Sölvesborg;Blekinge;8744;56.050653;14.58719;Sölvesborg, Blekinge;;False
1214TB101;Billeberga;Skåne;1053;55.882914;12.999087;Billeberga, Skåne;;False
1214TB102;Kågeröd;Skåne;1585;55.999056;13.088313;Kågeröd, Skåne;;False
1214TB103;Röstånga;Skåne;911;56.000698;13.291218;Röstånga, Skåne;;False
1214TB105;Teckomatorp;Skåne;1991;55.866539;13.090358;Teckomatorp, Skåne;;False
1214TB106;Tågarp;Skåne;484;56.304305;13.822234;Tågarp, Skåne;;False
1214TC104;Svalöv;Skåne;4250;55.913651;13.106982;Svalöv, Skåne;;False
1230TB101;Bergströmshusen;Skåne;394;55.67668;13.17336;Bergströmshusen, Skåne;;False
1230TB103;Hjärup;Skåne;5948;55.669848;13.139972;Hjärup, Skåne;;False
1230TB104;Kyrkheddinge;Skåne;320;55.64914;13.268006;Kyrkheddinge, Skåne;;False
1230TC105;Staffanstorp;Skåne;17838;55.642739;13.211399;Staffanstorp, Skåne;;False
1231TB101;Burlövs egnahem;Skåne;775;55.635827;13.101915;Burlövs egnahem, Skåne;;False
1231TB102;Åkarp;Skåne;6394;55.876893;13.13622;Åkarp, Skåne;;False
1233TB101;Arrie;Skåne;330;55.515525;13.085134;Arrie, Skåne;;False
1233TB102;Gessie Villastad;Skåne;527;55.4974;12.956839;Gessie Villastad, Skåne;;False
1233TB103;Hököpinge;Skåne;1777;55.493338;13.008787;Hököpinge, Skåne;;False
1233TB107;Skanör med Falsterbo;Skåne;7339;55.406007;12.844342;Skanör med Falsterbo, Skåne;;False
1233TB109;Västra Ingelstad;Skåne;1075;55.490469;13.112362;Västra Ingelstad, Skåne;;False
1233TB110;Östra Grevie;Skåne;952;55.467549;13.135778;Östra Grevie, Skåne;;False
1233TC108;Vellinge;Skåne;7274;55.470895;13.019944;Vellinge, Skåne;;False
1256TB102;Glimåkra;Skåne;1484;56.303711;14.133828;Glimåkra, Skåne;;False
1256TB103;Hanaskog;Skåne;1244;56.159064;14.093411;Hanaskog, Skåne;;False
1256TB105;Immeln;Skåne;307;56.206054;14.248948;Immeln, Skåne;;False
1256TB106;Knislinge;Skåne;3346;56.194202;14.085138;Knislinge, Skåne;;False
1256TB107;Sibbhult;Skåne;1337;56.269404;14.195023;Sibbhult, Skåne;;False
1257TB102;Skånes-Fagerhult;Skåne;951;56.370506;13.46517;Skånes-Fagerhult, Skåne;;False
1257TB103;Åsljunga;Skåne;759;56.309388;13.374488;Åsljunga, Skåne;;False
1257TC104;Örkelljunga;Skåne;5507;56.283976;13.278452;Örkelljunga, Skåne;;False
1260TB103;Ekeby;Skåne;3344;56.016667;12.95;Ekeby, Skåne;;False
1260TC102;Bjuv;Skåne;11209;56.084298;12.91673;Bjuv, Skåne;;False
1261TB101;Järavallen;Skåne;251;55.79271;12.950475;Järavallen, Skåne;;False
1261TB102;Barsebäck;Skåne;987;55.771661;12.956365;Barsebäck, Skåne;;False
1261TB103;Barsebäckshamn;Skåne;486;55.755836;12.905884;Barsebäckshamn, Skåne;;False
1261TB104;Dösjebro;Skåne;902;55.819977;13.030453;Dösjebro, Skåne;;False
1261TB105;Furulund;Skåne;4633;55.776234;13.091198;Furulund, Skåne;;False
1261TB106;Hofterup;Skåne;4067;55.798332;12.976774;Hofterup, Skåne;;False
1261TB108;Lilla Harrie;Skåne;394;55.792753;13.202751;Lilla Harrie, Skåne;;False
1261TB109;Löddeköpinge;Skåne;6714;55.763213;13.000394;Löddeköpinge, Skåne;;False
1261TB110;Sandskogen;Skåne;708;55.762881;12.982192;Sandskogen, Skåne;;False
1261TB111;Västra Karaby;Skåne;265;55.810902;13.051412;Västra Karaby, Skåne;;False
1261TC107;Kävlinge;Skåne;10453;55.791294;13.107347;Kävlinge, Skåne;;False
1262TB101;Bjärred;Skåne;9816;55.722186;13.021643;Bjärred, Skåne;;False
1262TB102;Flädie;Skåne;245;55.725269;13.071982;Flädie, Skåne;;False
1262TC103;Lomma;Skåne;13699;55.674534;13.070892;Lomma, Skåne;;False
1263TB102;Holmeja;Skåne;258;55.554932;13.273687;Holmeja, Skåne;;False
1263TB103;Klågerup;Skåne;2317;55.594253;13.249008;Klågerup, Skåne;;False
1263TC105;Svedala;Skåne;13433;55.515242;13.238435;Svedala, Skåne;;False
1264TB101;Abbekås;Skåne;841;55.399274;13.600275;Abbekås, Skåne;;False
1264TB102;Rydsgård;Skåne;1521;55.470789;13.58829;Rydsgård, Skåne;;False
1264TB103;Skivarp;Skåne;1397;55.42463;13.569718;Skivarp, Skåne;;False
1264TC104;Skurup;Skåne;9233;55.483927;13.501464;Skurup, Skåne;;False
1265TB101;Karups sommarby;Skåne;393;55.591988;13.637648;Karups sommarby, Skåne;;False
1265TB102;Bjärsjölagård;Skåne;359;55.723107;13.689776;Bjärsjölagård, Skåne;;False
1265TB103;Blentarp;Skåne;1535;55.584158;13.59908;Blentarp, Skåne;;False
1265TB104;Lövestad;Skåne;709;55.65228;13.891961;Lövestad, Skåne;;False
1265TB107;Sövde;Skåne;347;55.585031;13.673597;Sövde, Skåne;;False
1265TB108;Vollsjö;Skåne;945;55.705442;13.790058;Vollsjö, Skåne;;False
1265TB109;Äsperöd;Skåne;229;55.609573;13.918975;Äsperöd, Skåne;;False
1265TC105;Sjöbo;Skåne;8565;55.635086;13.703116;Sjöbo, Skåne;;False
1266TB103;Osbyholm;Skåne;333;55.84821;13.610839;Osbyholm, Skåne;;False
1266TB104;Önneköp;Skåne;206;55.786116;13.87089;Önneköp, Skåne;;False
1266TC101;Hörby;Skåne;7583;55.854013;13.66333;Hörby, Skåne;;False
1267TB105;Norra Rörum;Skåne;231;56.017655;13.507504;Norra Rörum, Skåne;;False
1267TB107;Snogeröd;Skåne;213;55.838666;13.494158;Snogeröd, Skåne;;False
1267TB109;Tjörnarp;Skåne;875;55.999983;13.635045;Tjörnarp, Skåne;;False
1267TC103;Höör;Skåne;14004;55.933291;13.545383;Höör, Skåne;;False
1270TB101;Brösarp;Skåne;721;55.724581;14.104728;Brösarp, Skåne;;False
1270TB102;Lunnarp;Skåne;314;55.543894;14.040716;Lunnarp, Skåne;;False
1270TB103;Onslunda;Skåne;446;55.598492;14.050292;Onslunda, Skåne;;False
1270TB104;Skåne-Tranås;Skåne;252;55.614047;13.993737;Skåne-Tranås, Skåne;;False
1270TB105;Smedstorp;Skåne;415;55.550375;14.116682;Smedstorp, Skåne;;False
1270TB106;Spjutstorp;Skåne;213;55.579951;14.014554;Spjutstorp, Skåne;;False
1270TC107;Tomelilla;Skåne;7262;55.543798;13.954122;Tomelilla, Skåne;;False
1272TB103;Gualöv;Skåne;519;56.048191;14.419841;Gualöv, Skåne;;False
1272TB104;Nymölla;Skåne;261;56.039288;14.464035;Nymölla, Skåne;;False
1272TB105;Näsum;Skåne;1274;56.172615;14.498832;Näsum, Skåne;;False
1272TB106;Valje;Skåne;1073;56.064597;14.544245;Valje, Skåne;;False
1272TC101;Bromölla;Skåne;7905;56.076158;14.468173;Bromölla, Skåne;;False
1273TB102;Killeberg;Skåne;612;56.475869;14.096954;Killeberg, Skåne;;False
1273TB103;Lönsboda;Skåne;1851;56.398584;14.321326;Lönsboda, Skåne;;False
1273TC104;Osby;Skåne;7754;56.382746;13.993285;Osby, Skåne;;False
1275TC101;Perstorp;Skåne;5972;56.137696;13.395281;Perstorp, Skåne;;False
1276TB102;Klippans bruk;Skåne;301;56.11979;13.148501;Klippans bruk, Skåne;;False
1276TB103;Ljungbyhed;Skåne;2167;56.074442;13.233562;Ljungbyhed, Skåne;;False
1276TB105;Östra Ljungby;Skåne;1812;56.191351;13.064778;Östra Ljungby, Skåne;;False
1276TC101;Klippan;Skåne;9049;56.116273;13.228856;Klippan, Skåne;;False
1277TB102;Hyllinge;Skåne;2454;56.105325;12.869367;Hyllinge, Skåne;;False
1277TB103;Kvidinge;Skåne;1986;56.135365;13.04499;Kvidinge, Skåne;;False
1277TC104;Åstorp;Skåne;10063;56.135121;12.946246;Åstorp, Skåne;;False
1278TB102;Förslöv;Skåne;2484;56.353279;12.817391;Förslöv, Skåne;;False
1278TB103;Grevie;Skåne;1031;55.622487;13.197019;Grevie, Skåne;;False
1278TB104;Torekov;Skåne;1044;56.426297;12.626767;Torekov, Skåne;;False
1278TB105;Västra Karup;Skåne;604;56.411539;12.743405;Västra Karup, Skåne;;False
1278TC101;Båstad;Skåne;7073;56.426789;12.860715;Båstad, Skåne;;False
1280TB101;Bunkeflostrand;Skåne;15488;55.553362;12.915588;Bunkeflostrand, Skåne;;False
1280TB107;Oxie;Skåne;14040;55.546157;13.096786;Oxie, Skåne;;False
1280TB108;Skumparp;Skåne;238;55.538813;12.966722;Skumparp, Skåne;;False
1280TB111;Tygelsjö;Skåne;4126;55.514669;13.001715;Tygelsjö, Skåne;;False
1280TC106;Malmö;Skåne;339316;55.605293;13.000156;Malmö, Skåne;;True
1281TB101;Dalby;Skåne;6969;55.664663;13.346158;Dalby, Skåne;;False
1281TB102;Genarp;Skåne;3180;55.599519;13.399529;Genarp, Skåne;;False
1281TB103;Torna Hällestad;Skåne;777;55.678976;13.418465;Torna Hällestad, Skåne;;False
1281TB107;Stångby;Skåne;2430;55.749279;13.19478;Stångby, Skåne;;False
1281TB110;Veberöd;Skåne;5647;55.633499;13.492564;Veberöd, Skåne;;False
1281TC105;Lund;Skåne;98308;55.702929;13.192944;Lund, Skåne;;False
1282TB101;Tuna;Skåne;340;55.913333;12.689722;Tuna, Skåne;;False
1282TB102;Annelöv;Skåne;445;55.836544;13.019732;Annelöv, Skåne;;False
1282TB103;Asmundtorp;Skåne;1679;55.885595;12.947194;Asmundtorp, Skåne;;False
1282TB104;Glumslöv;Skåne;2243;55.941698;12.810486;Glumslöv, Skåne;;False
1282TB105;Häljarp;Skåne;4024;55.851545;12.915209;Häljarp, Skåne;;False
1282TB106;Härslöv;Skåne;412;55.932406;12.876023;Härslöv, Skåne;;False
1282TB107;Kvärlöv;Skåne;245;55.839439;12.986569;Kvärlöv, Skåne;;False
1282TB109;Saxtorpsskogen;Skåne;1242;55.828988;12.942142;Saxtorpsskogen, Skåne;;False
1282TC108;Landskrona;Skåne;33859;55.8698;12.829673;Landskrona, Skåne;;False
1283TB101;Fleninge;Skåne;275;56.108335;12.791536;Fleninge, Skåne;;False
1283TB102;Allerum;Skåne;780;56.128579;12.668427;Allerum, Skåne;;False
1283TB104;Domsten;Skåne;571;56.119693;12.607308;Domsten, Skåne;;False
1283TB105;Gantofta;Skåne;1491;55.987462;12.801964;Gantofta, Skåne;;False
1283TB106;Hasslarp;Skåne;543;56.137304;12.813448;Hasslarp, Skåne;;False
1283TB108;Hittarp;Skåne;4554;56.098331;12.638806;Hittarp, Skåne;;False
1283TB109;Kattarp;Skåne;891;56.193491;12.755286;Kattarp, Skåne;;False
1283TB110;Mörarp;Skåne;1920;56.056735;12.877454;Mörarp, Skåne;;False
1283TB111;Påarp;Skåne;5882;56.031794;12.815699;Påarp, Skåne;;False
1283TB112;Rydebäck;Skåne;6597;55.966444;12.780677;Rydebäck, Skåne;;False
1283TB113;Tånga och Rögle;Skåne;233;56.193729;12.773407;Tånga och Rögle, Skåne;;False
1283TB114;Utvälinge;Skåne;212;56.215747;12.780708;Utvälinge, Skåne;;False
1283TB115;Vallåkra;Skåne;866;55.962267;12.858315;Vallåkra, Skåne;;False
1283TB116;Ödåkra;Skåne;5768;56.10335;12.749927;Ödåkra, Skåne;;False
1283TC107;Helsingborg;Skåne;116029;56.044198;12.704068;Helsingborg, Skåne;;False
1284TB101;Farhult;Skåne;477;56.215028;12.712529;Farhult, Skåne;;False
1284TB102;Arild;Skåne;757;56.273819;12.572109;Arild, Skåne;;False
1284TB104;Ingelsträde;Skåne;245;56.185135;12.632973;Ingelsträde, Skåne;;False
1284TB108;Mölle;Skåne;545;56.282746;12.498322;Mölle, Skåne;;False
1284TC103;Höganäs;Skåne;16274;56.200856;12.551584;Höganäs, Skåne;;False
1285TB101;Billinge;Skåne;449;55.962529;13.331781;Billinge, Skåne;;False
1285TB103;Flyinge;Skåne;1055;55.753452;13.368546;Flyinge, Skåne;;False
1285TB104;Gårdstånga;Skåne;366;55.764195;13.322496;Gårdstånga, Skåne;;False
1285TB105;Harlösa;Skåne;887;55.717611;13.52561;Harlösa, Skåne;;False
1285TB106;Hurva;Skåne;376;55.796007;13.438365;Hurva, Skåne;;False
1285TB107;Kungshult;Skåne;383;56.102261;12.6958;Kungshult, Skåne;;False
1285TB108;Löberöd;Skåne;1276;55.775677;13.514908;Löberöd, Skåne;;False
1285TB109;Marieholm;Skåne;1725;55.864144;13.151533;Marieholm, Skåne;;False
1285TB110;Stehag;Skåne;1454;55.903151;13.393866;Stehag, Skåne;;False
1285TB111;Stockamöllan;Skåne;294;55.94569;13.373799;Stockamöllan, Skåne;;False
1285TB112;Örtofta;Skåne;257;55.778322;13.243988;Örtofta, Skåne;;False
1285TB113;Väggarp;Skåne;260;55.786782;13.241248;Väggarp, Skåne;;False
1285TC102;Eslöv;Skåne;20422;55.837495;13.303626;Eslöv, Skåne;;False
1286TB102;Glemmingebro;Skåne;421;55.451134;14.023794;Glemmingebro, Skåne;;False
1286TB104;Köpingebro;Skåne;1356;55.452452;13.935417;Köpingebro, Skåne;;False
1286TB105;Löderup;Skåne;592;55.438801;14.113706;Löderup, Skåne;;False
1286TB106;Nybrostrand;Skåne;1543;55.433008;13.950298;Nybrostrand, Skåne;;False
1286TB107;Stora Herrestad;Skåne;334;55.474891;13.874225;Stora Herrestad, Skåne;;False
1286TB108;Svarte;Skåne;1102;55.430931;13.715131;Svarte, Skåne;;False
1286TB109;Sövestad;Skåne;354;55.501399;13.79526;Sövestad, Skåne;;False
1286TC110;Ystad;Skåne;21259;55.432984;13.819655;Ystad, Skåne;;False
1287TB101;Alstad;Skåne;343;55.454374;13.209501;Alstad, Skåne;;False
1287TB102;Anderslöv;Skåne;2023;55.438877;13.318682;Anderslöv, Skåne;;False
1287TB103;Beddingestrand;Skåne;1644;55.360633;13.425184;Beddingestrand, Skåne;;False
1287TB106;Kurland;Skåne;640;55.376975;13.084278;Kurland, Skåne;;False
1287TB108;Skegrie;Skåne;1934;55.406315;13.082367;Skegrie, Skåne;;False
1287TB109;Smygehamn;Skåne;1292;55.346446;13.374123;Smygehamn, Skåne;;False
1287TB111;Västra Tommarp;Skåne;428;55.397667;13.102386;Västra Tommarp, Skåne;;False
1287TC110;Trelleborg;Skåne;31366;55.37592;13.146152;Trelleborg, Skåne;;False
1290TB101;Arkelstorp;Skåne;792;56.173923;14.289774;Arkelstorp, Skåne;;False
1290TB102;Balsby;Skåne;475;56.075362;14.21103;Balsby, Skåne;;False
1290TB103;Bäckaskog;Skåne;322;56.044299;14.33426;Bäckaskog, Skåne;;False
1290TB104;Degeberga;Skåne;1350;55.837151;14.089263;Degeberga, Skåne;;False
1290TB105;Everöd;Skåne;906;55.899331;14.097671;Everöd, Skåne;;False
1290TB106;Fjälkinge;Skåne;1872;56.043385;14.275847;Fjälkinge, Skåne;;False
1290TB107;Färlöv;Skåne;1630;56.072127;14.085975;Färlöv, Skåne;;False
1290TB108;Gärds Köpinge;Skåne;893;55.946387;14.156024;Gärds Köpinge, Skåne;;False
1290TB109;Hammar;Skåne;3585;56.031989;14.204713;Hammar, Skåne;;False
1290TB109;Hammar;Skåne;3585;56.031989;14.204713;Hammar, Skåne;;False
1290TB111;Huaröd;Skåne;256;55.840368;13.96827;Huaröd, Skåne;;False
1290TB113;Linderöd;Skåne;473;55.933072;13.823756;Linderöd, Skåne;;False
1290TB117;Rinkaby;Skåne;748;55.982144;14.273104;Rinkaby, Skåne;;False
1290TB118;Tollarp;Skåne;3385;55.934062;13.975141;Tollarp, Skåne;;False
1290TB123;Vittskövle;Skåne;228;55.857306;14.147398;Vittskövle, Skåne;;False
1290TB124;Vånga;Skåne;268;56.182372;14.37371;Vånga, Skåne;;False
1290TB125;Yngsjö;Skåne;758;55.88277;14.229382;Yngsjö, Skåne;;False
1290TB126;Åhus;Skåne;10877;55.923516;14.295522;Åhus, Skåne;;False
1290TB127;Önnestad;Skåne;1393;56.055872;14.023399;Önnestad, Skåne;;False
1290TB128;Österslöv;Skåne;468;56.096288;14.245903;Österslöv, Skåne;;False
1290TB129;Östra Sönnarslöv;Skåne;268;55.885956;14.015647;Östra Sönnarslöv, Skåne;;False
1290TB130;Bjärlöv;Skåne;215;56.112944;14.087109;Bjärlöv, Skåne;;False
1290TC112;Kristianstad;Skåne;41198;56.029377;14.156685;Kristianstad, Skåne;;False
1291TB101;Baskemölla;Skåne;297;55.591541;14.315296;Baskemölla, Skåne;;False
1291TB102;Borrby;Skåne;840;55.458033;14.180885;Borrby, Skåne;;False
1291TB103;Brantevik;Skåne;333;55.515199;14.345963;Brantevik, Skåne;;False
1291TB104;Gärsnäs;Skåne;1039;55.545916;14.185333;Gärsnäs, Skåne;;False
1291TB105;Hammenhög;Skåne;920;55.503246;14.152144;Hammenhög, Skåne;;False
1291TB106;Kivik;Skåne;871;55.684635;14.224772;Kivik, Skåne;;False
1291TB107;Sankt Olof;Skåne;679;55.636693;14.129242;Sankt Olof, Skåne;;False
1291TB110;Skillinge;Skåne;962;55.475713;14.279918;Skillinge, Skåne;;False
1291TB112;Vitaby;Skåne;353;55.684977;14.153547;Vitaby, Skåne;;False
1291TB113;Östra Tommarp;Skåne;313;55.537917;14.234369;Östra Tommarp, Skåne;;False
1291TB114;Östra Vemmerlöv;Skåne;212;55.582932;14.232583;Östra Vemmerlöv, Skåne;;False
1291TC109;Simrishamn;Skåne;6863;55.556554;14.34999;Simrishamn, Skåne;;False
1292TB101;Hjärnarp;Skåne;1218;56.316862;12.917843;Hjärnarp, Skåne;;False
1292TB104;Margretetorp;Skåne;216;56.335859;12.892382;Margretetorp, Skåne;;False
1292TB105;Munka-Ljungby;Skåne;3687;56.256101;12.973975;Munka-Ljungby, Skåne;;False
1292TB107;Strövelstorp;Skåne;1449;56.166109;12.837575;Strövelstorp, Skåne;;False
1292TB113;Össjö;Skåne;256;56.22861;13.031806;Össjö, Skåne;;False
1292TC111;Ängelholm;Skåne;31089;56.242922;12.861937;Ängelholm, Skåne;;False
1293TB101;Ballingslöv;Skåne;357;56.214274;13.846578;Ballingslöv, Skåne;;False
1293TB102;Bjärnum;Skåne;2762;56.290441;13.711422;Bjärnum, Skåne;;False
1293TB103;Emmaljunga;Skåne;286;56.399826;13.649232;Emmaljunga, Skåne;;False
1293TB104;Finja;Skåne;514;56.167568;13.689776;Finja, Skåne;;False
1293TB106;Hästveda;Skåne;1731;56.284508;13.936391;Hästveda, Skåne;;False
1293TB107;Hörja;Skåne;201;56.205668;13.59975;Hörja, Skåne;;False
1293TB108;Mala;Skåne;227;56.241004;13.711531;Mala, Skåne;;False
1293TB109;Röke;Skåne;210;56.235947;13.522654;Röke, Skåne;;False
1293TB110;Sjörröd;Skåne;1593;56.282589;13.915975;Sjörröd, Skåne;;False
1293TB111;Stoby;Skåne;750;56.175596;13.827924;Stoby, Skåne;;False
1293TB112;Sösdala;Skåne;1835;56.04063;13.681493;Sösdala, Skåne;;False
1293TB113;Tormestorp;Skåne;1097;56.11158;13.744208;Tormestorp, Skåne;;False
1293TB114;Tyringe;Skåne;4752;56.160204;13.604263;Tyringe, Skåne;;False
1293TB115;Vankiva;Skåne;397;56.200364;13.741501;Vankiva, Skåne;;False
1293TB116;Vinslöv;Skåne;4113;56.102213;13.909576;Vinslöv, Skåne;;False
1293TB117;Vittsjö;Skåne;1792;56.341923;13.665492;Vittsjö, Skåne;;False
1293TC105;Hässleholm;Skåne;19760;56.157986;13.765332;Hässleholm, Skåne;;False
1315TB102;Kinnared;Halland;295;57.026938;13.110207;Kinnared, Halland;;False
1315TB103;Landeryd;Halland;375;57.077553;13.266096;Landeryd, Halland;;False
1315TB104;Rydöbruk;Halland;357;56.960859;13.143345;Rydöbruk, Halland;;False
1315TB105;Torup;Halland;1268;56.953542;13.074462;Torup, Halland;;False
1315TB106;Unnaryd;Halland;699;56.954534;13.52848;Unnaryd, Halland;;False
1315TC101;Hyltebruk;Halland;3929;56.999572;13.239955;Hyltebruk, Halland;;False
1380TB101;Eldsberga;Halland;752;56.597933;12.985408;Eldsberga, Halland;;False
1380TB102;Frösakull;Halland;2693;56.668435;12.739596;Frösakull, Halland;;False
1380TB104;Getinge;Halland;2063;56.820129;12.732667;Getinge, Halland;;False
1380TB105;Gullbrandstorp;Halland;1855;56.702952;12.735216;Gullbrandstorp, Halland;;False
1380TB106;Gullbranna;Halland;643;56.590329;12.947142;Gullbranna, Halland;;False
1380TB108;Harplinge;Halland;1706;56.744347;12.724915;Harplinge, Halland;;False
1380TB109;Haverdal;Halland;1925;56.728083;12.671424;Haverdal, Halland;;False
1380TB111;Kvibille;Halland;1016;56.783227;12.832206;Kvibille, Halland;;False
1380TB112;Laxvik;Halland;466;56.597352;12.92706;Laxvik, Halland;;False
1380TB113;Oskarström;Halland;4116;56.801561;12.976093;Oskarström, Halland;;False
1380TB114;Sennan;Halland;394;56.77414;12.979098;Sennan, Halland;;False
1380TB115;Simlångsdalen;Halland;692;56.720464;13.126037;Simlångsdalen, Halland;;False
1380TB116;Skedala;Halland;518;56.693218;12.973859;Skedala, Halland;;False
1380TB117;Steninge;Halland;1189;56.764323;12.634688;Steninge, Halland;;False
1380TB118;Trönninge;Halland;1709;57.14172;12.288236;Trönninge, Halland;;False
1380TB120;Villshärad;Halland;701;56.69436;12.696605;Villshärad, Halland;;False
1380TB121;Åled;Halland;1883;56.742381;12.947557;Åled, Halland;;False
1380TC107;Halmstad;Halland;72979;56.673982;12.857482;Halmstad, Halland;;True
1381TB101;Genevad;Halland;684;56.569084;13.032883;Genevad, Halland;;False
1381TB102;Hasslöv;Halland;278;56.413086;13.006068;Hasslöv, Halland;;False
1381TB103;Hishult;Halland;322;56.428253;13.312204;Hishult, Halland;;False
1381TB104;Knäred;Halland;1177;56.520239;13.316688;Knäred, Halland;;False
1381TB106;Lilla Tjärby;Halland;1090;56.527249;13.056591;Lilla Tjärby, Halland;;False
1381TB107;Mellbystrand;Halland;4641;56.504597;12.948391;Mellbystrand, Halland;;False
1381TB108;Ränneslöv;Halland;464;56.453316;13.076352;Ränneslöv, Halland;;False
1381TB109;Skottorp;Halland;609;56.450007;12.961617;Skottorp, Halland;;False
1381TB111;Vallberga;Halland;788;56.467628;13.024907;Vallberga, Halland;;False
1381TB112;Veinge;Halland;1444;56.554025;13.076164;Veinge, Halland;;False
1381TB113;Våxtorp;Halland;1098;56.419302;13.115896;Våxtorp, Halland;;False
1381TB114;Ysby;Halland;284;56.493315;13.119966;Ysby, Halland;;False
1381TC105;Laholm;Halland;6861;56.512652;13.044638;Laholm, Halland;;False
1382TB101;Bergagård;Halland;418;56.981516;12.5775;Bergagård, Halland;;False
1382TB103;Fegen;Halland;240;57.104094;13.032551;Fegen, Halland;;False
1382TB104;Glommen;Halland;1329;56.932469;12.364506;Glommen, Halland;;False
1382TB105;Heberg;Halland;471;56.88082;12.628135;Heberg, Halland;;False
1382TB106;Köinge;Halland;233;57.064209;12.645174;Köinge, Halland;;False
1382TB107;Långås;Halland;543;56.979132;12.447907;Långås, Halland;;False
1382TB109;Morup;Halland;332;56.979293;12.395902;Morup, Halland;;False
1382TB114;Slöinge;Halland;1077;56.855134;12.690862;Slöinge, Halland;;False
1382TB115;Ullared;Halland;879;57.136086;12.715631;Ullared, Halland;;False
1382TB116;Vessigebro;Halland;875;56.978627;12.658665;Vessigebro, Halland;;False
1382TB117;Vinberg;Halland;648;56.947054;12.542938;Vinberg, Halland;;False
1382TB120;Älvsered;Halland;442;57.241455;12.866472;Älvsered, Halland;;False
1382TC102;Falkenberg;Halland;29671;57.012893;12.711883;Falkenberg, Halland;;False
1383TB101;Bua;Halland;2009;57.237037;12.122481;Bua, Halland;;False
1383TB102;Getterön;Halland;357;57.120002;12.212379;Getterön, Halland;;False
1383TB103;Himle;Halland;319;57.073175;12.36675;Himle, Halland;;False
1383TB104;Hunnestad;Halland;331;57.100656;12.355766;Hunnestad, Halland;;False
1383TB105;Kungsäter;Halland;414;57.305817;12.56488;Kungsäter, Halland;;False
1383TB108;Rolfstorp;Halland;595;57.145253;12.45987;Rolfstorp, Halland;;False
1383TB109;Skällinge;Halland;644;57.182168;12.468343;Skällinge, Halland;;False
1383TB110;Tofta;Halland;482;57.17385;12.30051;Tofta, Halland;;False
1383TB111;Torpa;Halland;280;57.188948;12.280569;Torpa, Halland;;False
1383TB116;Tvååker;Halland;3265;57.041893;12.398992;Tvååker, Halland;;False
1383TB117;Tångaberg;Halland;1106;57.174622;12.22589;Tångaberg, Halland;;False
1383TB118;Valinge;Halland;281;57.171131;12.381098;Valinge, Halland;;False
1383TB120;Veddige;Halland;2284;57.266395;12.330372;Veddige, Halland;;False
1383TB121;Väröbacka;Halland;850;57.251126;12.180716;Väröbacka, Halland;;False
1383TC119;Varberg;Halland;38575;57.105741;12.250294;Varberg, Halland;;False
1384TB101;Röda holme;Halland;683;57.376334;11.991584;Röda holme, Halland;;False
1384TB105;Buerås;Halland;876;57.423823;11.968179;Buerås, Halland;;False
1384TB106;Fjärås kyrkby;Halland;2810;57.460032;12.17238;Fjärås kyrkby, Halland;;False
1384TB107;Fjärås station;Halland;203;57.438054;12.155869;Fjärås station, Halland;;False
1384TB108;Frillesås;Halland;3773;57.31728;12.176746;Frillesås, Halland;;False
1384TB112;Halla Heberg;Halland;1970;57.465284;11.988166;Halla Heberg, Halland;;False
1384TB115;Kläppa;Halland;787;57.363652;12.141729;Kläppa, Halland;;False
1384TB119;Onsala;Halland;12486;57.427218;12.03027;Onsala, Halland;;False
1384TB123;Vallda;Halland;3981;57.472678;11.999076;Vallda, Halland;;False
1384TB127;Västra Hagen;Halland;1393;57.421668;11.940857;Västra Hagen, Halland;;False
1401TB104;Hällingsjö;Västra Götaland;480;57.618286;12.435963;Hällingsjö, Västra Götaland;;False
1401TB105;Hindås;Västra Götaland;3073;57.702816;12.451188;Hindås, Västra Götaland;;False
1401TB106;Härryda;Västra Götaland;1207;57.669189;12.295911;Härryda, Västra Götaland;;False
1401TB107;Landvetter;Västra Götaland;9999;57.685293;12.22349;Landvetter, Västra Götaland;;False
1401TB109;Nya Långenäs;Västra Götaland;340;57.656138;12.165207;Nya Långenäs, Västra Götaland;;False
1401TB110;Rya;Västra Götaland;355;58.05637;13.332731;Rya, Västra Götaland;;False
1401TB111;Rävlanda;Västra Götaland;1734;57.655551;12.499865;Rävlanda, Västra Götaland;;False
1401TB112;Stora Bugärde;Västra Götaland;493;57.653878;12.397367;Stora Bugärde, Västra Götaland;;False
1401TC108;Mölnlycke;Västra Götaland;25172;57.658361;12.113576;Mölnlycke, Västra Götaland;;False
1402TB101;Jonsered;Västra Götaland;887;57.746978;12.17126;Jonsered, Västra Götaland;;False
1402TB102;Kåhög;Västra Götaland;869;57.750421;12.151588;Kåhög, Västra Götaland;;False
1407TB102;Fotö;Västra Götaland;614;57.670081;11.654583;Fotö, Västra Götaland;;False
1407TB104;Hälsö;Västra Götaland;569;57.734884;11.652415;Hälsö, Västra Götaland;;False
1407TB106;Kalvsund;Västra Götaland;233;57.708968;11.680922;Kalvsund, Västra Götaland;;False
1407TB107;Källö-Knippla;Västra Götaland;285;57.753167;11.65105;Källö-Knippla, Västra Götaland;;False
1407TB108;Rörö;Västra Götaland;253;57.781185;11.605982;Rörö, Västra Götaland;;False
1415TB102;Jörlanda;Västra Götaland;1471;57.986393;11.831144;Jörlanda, Västra Götaland;;False
1415TB105;Stora Höga;Västra Götaland;3122;58.014335;11.828449;Stora Höga, Västra Götaland;;False
1415TB106;Stenungsön;Västra Götaland;255;58.066934;11.800581;Stenungsön, Västra Götaland;;False
1415TB108;Svartehallen;Västra Götaland;239;58.118234;11.95799;Svartehallen, Västra Götaland;;False
1415TB109;Svenshögen;Västra Götaland;395;58.144643;11.938389;Svenshögen, Västra Götaland;;False
1415TB110;Ucklum;Västra Götaland;761;58.084444;11.956919;Ucklum, Västra Götaland;;False
1415TB111;Spekeröd;Västra Götaland;227;58.032826;11.870128;Spekeröd, Västra Götaland;;False
1415TB112;Ödsmål;Västra Götaland;1414;58.110845;11.856059;Ödsmål, Västra Götaland;;False
1415TC104;Stenungsund;Västra Götaland;14381;58.061063;11.908631;Stenungsund, Västra Götaland;;False
1419TB105;Kyrkesund;Västra Götaland;534;58.015795;11.514944;Kyrkesund, Västra Götaland;;False
1419TB106;Kållekärr;Västra Götaland;803;58.026051;11.660106;Kållekärr, Västra Götaland;;False
1419TB107;Höviksnäs;Västra Götaland;3469;58.033244;11.74835;Höviksnäs, Västra Götaland;;False
1419TB109;Rönnäng;Västra Götaland;1597;57.937715;11.585986;Rönnäng, Västra Götaland;;False
1419TC110;Skärhamn;Västra Götaland;3725;57.990922;11.549795;Skärhamn, Västra Götaland;;False
1421TB101;Ellös;Västra Götaland;1204;58.17997;11.468747;Ellös, Västra Götaland;;False
1421TB104;Höggeröd;Västra Götaland;456;58.000793;11.655793;Höggeröd, Västra Götaland;;False
1421TB106;Svanesund;Västra Götaland;2014;58.143036;11.819062;Svanesund, Västra Götaland;;False
1421TB108;Varekil;Västra Götaland;933;58.125344;11.719767;Varekil, Västra Götaland;;False
1421TC102;Henån;Västra Götaland;2394;58.236163;11.679338;Henån, Västra Götaland;;False
1427TB101;Bovallstrand;Västra Götaland;456;58.474747;11.318806;Bovallstrand, Västra Götaland;;False
1427TB103;Hunnebostrand;Västra Götaland;1988;58.441239;11.301082;Hunnebostrand, Västra Götaland;;False
1430TB101;Dingle;Västra Götaland;910;58.527657;11.578637;Dingle, Västra Götaland;;False
1430TB102;Hedekas;Västra Götaland;398;58.644993;11.780037;Hedekas, Västra Götaland;;False
1430TB103;Hällevadsholm;Västra Götaland;782;58.578554;11.543153;Hällevadsholm, Västra Götaland;;False
1430TB105;Torreby;Västra Götaland;250;58.443718;11.599255;Torreby, Västra Götaland;;False
1430TC104;Munkedal;Västra Götaland;4178;58.607817;11.672323;Munkedal, Västra Götaland;;False
1435TB101;Fjällbacka;Västra Götaland;816;58.598754;11.28278;Fjällbacka, Västra Götaland;;False
1435TB102;Grebbestad;Västra Götaland;1936;58.691937;11.253141;Grebbestad, Västra Götaland;;False
1435TB103;Hamburgsund;Västra Götaland;696;58.553609;11.273685;Hamburgsund, Västra Götaland;;False
1435TB104;Rabbalshede;Västra Götaland;280;58.610765;11.471778;Rabbalshede, Västra Götaland;;False
1435TC105;Tanumshede;Västra Götaland;2012;58.721908;11.332385;Tanumshede, Västra Götaland;;False
1438TC101;Ed;Västra Götaland;2901;58.912582;11.934013;Ed, Västra Götaland;;False
1439TB102;Högsäter;Västra Götaland;695;58.651104;12.055453;Högsäter, Västra Götaland;;False
1439TB103;Stigen;Västra Götaland;426;58.300669;12.066645;Stigen, Västra Götaland;;False
1439TB104;Ödeborg;Västra Götaland;575;58.545129;11.971767;Ödeborg, Västra Götaland;;False
1439TC101;Färgelanda;Västra Götaland;1938;58.613536;12.005882;Färgelanda, Västra Götaland;;False
1440TB104;Skepplanda;Västra Götaland;1821;57.982574;12.212476;Skepplanda, Västra Götaland;;False
1440TB105;Surte;Västra Götaland;6530;57.826762;12.016163;Surte, Västra Götaland;;False
1440TB106;Älvängen;Västra Götaland;6634;57.957664;12.118833;Älvängen, Västra Götaland;;False
1440TC102;Nödinge-Nol;Västra Götaland;11658;57.906877;12.06016;Nödinge-Nol, Västra Götaland;;False
1441TB103;Björboholm;Västra Götaland;1215;57.873579;12.32805;Björboholm, Västra Götaland;;False
1441TB105;Gråbo;Västra Götaland;6953;57.838561;12.299197;Gråbo, Västra Götaland;;False
1441TB108;Sjövik;Västra Götaland;1071;57.915932;12.370609;Sjövik, Västra Götaland;;False
1441TB109;Tollered;Västra Götaland;882;57.818729;12.422679;Tollered, Västra Götaland;;False
1441TB110;Öxeryd;Västra Götaland;666;57.737618;12.274383;Öxeryd, Västra Götaland;;False
1441TC106;Lerum;Västra Götaland;28789;57.769947;12.268929;Lerum, Västra Götaland;;False
1442TB101;Horla;Västra Götaland;250;57.967728;12.72825;Horla, Västra Götaland;;False
1442TB103;Östadkulle;Västra Götaland;437;58.023946;12.637291;Östadkulle, Västra Götaland;;False
1442TC102;Vårgårda;Västra Götaland;6198;58.031649;12.80904;Vårgårda, Västra Götaland;;False
1443TB102;Hultafors;Västra Götaland;295;57.695803;12.734457;Hultafors, Västra Götaland;;False
1443TB103;Olsfors;Västra Götaland;607;57.691805;12.698833;Olsfors, Västra Götaland;;False
1443TB104;Töllsjö;Västra Götaland;428;57.797309;12.63476;Töllsjö, Västra Götaland;;False
1443TC101;Bollebygd;Västra Götaland;4670;57.744516;12.583187;Bollebygd, Västra Götaland;;False
1444TC101;Grästorp;Västra Götaland;3022;58.328806;12.625973;Grästorp, Västra Götaland;;False
1445TB101;Främmestad;Västra Götaland;367;58.233322;12.666292;Främmestad, Västra Götaland;;False
1445TC103;Nossebro;Västra Götaland;1931;58.188396;12.719209;Nossebro, Västra Götaland;;False
1446TB103;Mölltorp;Västra Götaland;1048;58.494309;14.41381;Mölltorp, Västra Götaland;;False
1446TB104;Undenäs;Västra Götaland;207;58.656896;14.398847;Undenäs, Västra Götaland;;False
1446TC102;Karlsborg;Västra Götaland;3876;58.594482;14.539705;Karlsborg, Västra Götaland;;False
1447TB103;Otterbäcken;Västra Götaland;606;58.94379;14.039389;Otterbäcken, Västra Götaland;;False
1447TC101;Gullspång;Västra Götaland;1579;58.92537;14.130022;Gullspång, Västra Götaland;;False
1447TC102;Hova;Västra Götaland;1225;58.85782;14.217518;Hova, Västra Götaland;;False
1452TB101;Ambjörnarp;Västra Götaland;303;57.421314;13.294558;Ambjörnarp, Västra Götaland;;False
1452TB102;Dalstorp;Västra Götaland;719;57.605573;13.511657;Dalstorp, Västra Götaland;;False
1452TB103;Grimsås;Västra Götaland;680;57.484848;13.551954;Grimsås, Västra Götaland;;False
1452TB104;Limmared;Västra Götaland;1441;57.537388;13.356598;Limmared, Västra Götaland;;False
1452TB105;Ljungsarp;Västra Götaland;202;57.565104;13.58333;Ljungsarp, Västra Götaland;;False
1452TB106;Länghem;Västra Götaland;1091;57.601177;13.242889;Länghem, Västra Götaland;;False
1452TB107;Rosenlund;Västra Götaland;302;57.526661;13.344477;Rosenlund, Västra Götaland;;False
1452TB110;Uddebo;Västra Götaland;269;57.474595;13.263325;Uddebo, Västra Götaland;;False
1452TC109;Tranemo;Västra Götaland;3455;57.490491;13.431046;Tranemo, Västra Götaland;;False
1460TB102;Billingsfors;Västra Götaland;954;58.983173;12.246167;Billingsfors, Västra Götaland;;False
1460TB103;Bäckefors;Västra Götaland;632;58.806127;12.159969;Bäckefors, Västra Götaland;;False
1460TB104;Dals Långed;Västra Götaland;1337;58.925905;12.306382;Dals Långed, Västra Götaland;;False
1460TB105;Skåpafors;Västra Götaland;322;59.022839;12.289002;Skåpafors, Västra Götaland;;False
1460TC101;Bengtsfors;Västra Götaland;3102;59.011644;12.245549;Bengtsfors, Västra Götaland;;False
1461TB102;Dals Rostock;Västra Götaland;775;58.714085;12.355654;Dals Rostock, Västra Götaland;;False
1461TB104;Åsensbruk;Västra Götaland;620;58.807243;12.419478;Åsensbruk, Västra Götaland;;False
1461TC103;Mellerud;Västra Götaland;3974;58.682429;12.525313;Mellerud, Västra Götaland;;False
1462TB101;Lilla Edet västra;Västra Götaland;1622;58.157211;12.08163;Lilla Edet västra, Västra Götaland;;False
1462TB102;Göta;Västra Götaland;1270;57.712516;12.927321;Göta, Västra Götaland;;False
1462TB103;Hjärtum;Västra Götaland;401;58.180071;12.108522;Hjärtum, Västra Götaland;;False
1462TB105;Lödöse;Västra Götaland;1895;58.033758;12.154571;Lödöse, Västra Götaland;;False
1462TC104;Lilla Edet;Västra Götaland;3907;58.157211;12.08163;Lilla Edet, Västra Götaland;;False
1463TB101;Ubbhult norra;Västra Götaland;405;57.580985;12.354719;Ubbhult norra, Västra Götaland;;False
1463TB103;Björketorp;Västra Götaland;563;57.426156;12.523757;Björketorp, Västra Götaland;;False
1463TB104;Fritsla;Västra Götaland;2346;57.551873;12.786593;Fritsla, Västra Götaland;;False
1463TB105;Horred;Västra Götaland;1283;57.358548;12.472959;Horred, Västra Götaland;;False
1463TB106;Hyssna;Västra Götaland;780;57.555518;12.53943;Hyssna, Västra Götaland;;False
1463TB108;Rydal;Västra Götaland;459;57.556172;12.693667;Rydal, Västra Götaland;;False
1463TB109;Sätila;Västra Götaland;1493;57.541234;12.435089;Sätila, Västra Götaland;;False
1463TB111;Öxabäck;Västra Götaland;329;57.394745;12.804626;Öxabäck, Västra Götaland;;False
1463TC107;Kinna;Västra Götaland;15507;57.507764;12.692822;Kinna, Västra Götaland;;False
1465TB101;Hillared;Västra Götaland;660;57.633198;13.161683;Hillared, Västra Götaland;;False
1465TB102;Holsljunga;Västra Götaland;215;57.413322;12.973595;Holsljunga, Västra Götaland;;False
1465TB103;Mjöbäck;Västra Götaland;296;57.314698;12.875615;Mjöbäck, Västra Götaland;;False
1465TB105;Sexdrega;Västra Götaland;834;57.576853;13.117921;Sexdrega, Västra Götaland;;False
1465TB107;Östra Frölunda;Västra Götaland;310;57.343315;13.029861;Östra Frölunda, Västra Götaland;;False
1465TB108;Överlida;Västra Götaland;488;57.349794;12.895822;Överlida, Västra Götaland;;False
1465TC106;Svenljunga;Västra Götaland;3717;57.496312;13.112259;Svenljunga, Västra Götaland;;False
1466TC103;Herrljunga;Västra Götaland;4113;58.009184;13.157048;Herrljunga, Västra Götaland;;False
1470TB101;Arentorp;Västra Götaland;523;58.241915;12.873894;Arentorp, Västra Götaland;;False
1470TB102;Emtunga;Västra Götaland;298;58.255237;12.999074;Emtunga, Västra Götaland;;False
1470TB105;Kvänum;Västra Götaland;1330;58.30143;13.186595;Kvänum, Västra Götaland;;False
1470TB106;Larv;Västra Götaland;235;58.188968;13.126441;Larv, Västra Götaland;;False
1470TB107;Stora Levene;Västra Götaland;773;58.325517;12.923582;Stora Levene, Västra Götaland;;False
1470TB108;Tråvad;Västra Götaland;490;58.251866;13.085384;Tråvad, Västra Götaland;;False
1470TB110;Vedum;Västra Götaland;945;58.171041;12.995567;Vedum, Västra Götaland;;False
1470TC109;Vara;Västra Götaland;4432;58.249026;13.101598;Vara, Västra Götaland;;False
1471TB103;Hällekis;Västra Götaland;618;58.630563;13.437862;Hällekis, Västra Götaland;;False
1471TB104;Källby;Västra Götaland;1511;58.509551;13.307386;Källby, Västra Götaland;;False
1471TB105;Lundsbrunn;Västra Götaland;901;58.471591;13.445263;Lundsbrunn, Västra Götaland;;False
1471TC102;Götene;Västra Götaland;5153;58.528062;13.492122;Götene, Västra Götaland;;False
1472TC102;Tibro;Västra Götaland;8588;58.42489;14.163119;Tibro, Västra Götaland;;False
1473TB101;Moholm;Västra Götaland;541;58.607027;14.038339;Moholm, Västra Götaland;;False
1473TB103;Älgarås;Västra Götaland;341;58.813509;14.252111;Älgarås, Västra Götaland;;False
1473TC102;Töreboda;Västra Götaland;4731;58.708106;14.123973;Töreboda, Västra Götaland;;False
1480TB101;Angered;Västra Götaland;1528;57.813166;12.118917;Angered, Västra Götaland;;False
1480TB102;Asperö;Västra Götaland;404;57.646285;11.800211;Asperö, Västra Götaland;;False
1480TB104;Brännö;Västra Götaland;914;57.643783;11.771863;Brännö, Västra Götaland;;False
1480TB107;Nordöstra Göteborg;Västra Götaland;48217;57.861715;11.517247;Nordöstra Göteborg, Västra Götaland;;False
1480TB113;Tumlehed;Västra Götaland;663;57.728818;11.74337;Tumlehed, Västra Götaland;;False
1480TB115;Nolvik;Västra Götaland;1535;57.777278;11.831599;Nolvik, Västra Götaland;;False
1480TB117;Olofstorp;Västra Götaland;4169;57.798552;12.168591;Olofstorp, Västra Götaland;;False
1480TB120;Stenared;Västra Götaland;468;57.805243;12.189724;Stenared, Västra Götaland;;False
1480TB122;Säve;Västra Götaland;771;57.803487;11.911706;Säve, Västra Götaland;;False
1480TB123;Vrångö;Västra Götaland;368;57.575646;11.785133;Vrångö, Västra Götaland;;False
1480TC108;Göteborg;Västra Götaland;674529;57.707232;11.967017;Göteborg, Västra Götaland;Gothenburg;True
1481TB101;Hällesåker;Västra Götaland;748;57.599574;12.189499;Hällesåker, Västra Götaland;;False
1482TB101;Diseröd;Västra Götaland;1570;57.924606;12.028827;Diseröd, Västra Götaland;;False
1482TB104;Kode;Västra Götaland;1569;57.943903;11.850813;Kode, Västra Götaland;;False
1482TB110;Marstrand;Västra Götaland;349;57.886761;11.588797;Marstrand, Västra Götaland;;False
1482TB111;Arvidsvik;Västra Götaland;1004;57.888471;11.591697;Arvidsvik, Västra Götaland;;False
1482TB112;Risby;Västra Götaland;265;57.894495;11.850962;Risby, Västra Götaland;;False
1482TB114;Duvesjön;Västra Götaland;320;57.953185;12.018631;Duvesjön, Västra Götaland;;False
1482TB115;Tjuvkil;Västra Götaland;1372;57.893324;11.743298;Tjuvkil, Västra Götaland;;False
1482TB117;Ödsmål och Åsebyberg;Västra Götaland;316;57.915144;11.800024;Ödsmål och Åsebyberg, Västra Götaland;;False
1482TC106;Kungälv;Västra Götaland;28912;57.870786;11.978862;Kungälv, Västra Götaland;;False
1484TB101;Brastad;Västra Götaland;1947;58.382006;11.485181;Brastad, Västra Götaland;;False
1484TB103;Fiskebäckskil;Västra Götaland;252;58.245646;11.456629;Fiskebäckskil, Västra Götaland;;False
1484TB104;Grundsund;Västra Götaland;616;58.213364;11.419244;Grundsund, Västra Götaland;;False
1484TC105;Lysekil;Västra Götaland;7340;58.291426;11.329568;Lysekil, Västra Götaland;;False
1485TB101;Ammenäs;Västra Götaland;617;58.311395;11.818407;Ammenäs, Västra Götaland;;False
1485TB102;Fagerhult;Västra Götaland;480;58.416667;12.016667;Fagerhult, Västra Götaland;;False
1485TB104;Hogstorp;Västra Götaland;385;58.396473;11.757787;Hogstorp, Västra Götaland;;False
1485TB105;Kurveröd;Västra Götaland;1343;58.363597;11.890481;Kurveröd, Västra Götaland;;False
1485TB106;Lanesund och Överby;Västra Götaland;923;58.340046;11.72853;Lanesund och Överby, Västra Götaland;;False
1485TB107;Ljungskile;Västra Götaland;4026;58.22465;11.919828;Ljungskile, Västra Götaland;;False
1485TB109;Smedseröd;Västra Götaland;364;58.36543;11.807151;Smedseröd, Västra Götaland;;False
1485TB112;Sjöskogen och Strand;Västra Götaland;604;58.286712;11.830503;Sjöskogen och Strand, Västra Götaland;;False
1485TB114;Utby;Västra Götaland;531;58.333811;11.786892;Utby, Västra Götaland;;False
1485TC111;Uddevalla;Västra Götaland;35639;58.349055;11.938285;Uddevalla, Västra Götaland;;False
1486TB101;Kebal;Västra Götaland;409;58.952553;11.152931;Kebal, Västra Götaland;;False
1486TB102;Skee;Västra Götaland;774;58.924422;11.268152;Skee, Västra Götaland;;False
1486TC103;Strömstad;Västra Götaland;7836;58.93815;11.17873;Strömstad, Västra Götaland;;False
1487TB102;Brålanda;Västra Götaland;1461;58.563312;12.35074;Brålanda, Västra Götaland;;False
1487TB103;Frändefors;Västra Götaland;605;58.500056;12.278243;Frändefors, Västra Götaland;;False
1487TB104;Nordkroken;Västra Götaland;457;58.382685;12.41426;Nordkroken, Västra Götaland;;False
1487TB105;Vargön;Västra Götaland;4942;58.358103;12.400362;Vargön, Västra Götaland;;False
1487TC106;Vänersborg;Västra Götaland;24731;58.443364;12.360981;Vänersborg, Västra Götaland;;False
1488TB102;Sjuntorp;Västra Götaland;2218;58.18823;12.226877;Sjuntorp, Västra Götaland;;False
1488TB103;Velanda;Västra Götaland;835;58.228718;12.310233;Velanda, Västra Götaland;;False
1488TB106;Upphärad;Västra Götaland;562;58.158264;12.304859;Upphärad, Västra Götaland;;False
1488TB107;Väne-Åsaka;Västra Götaland;388;58.247085;12.42024;Väne-Åsaka, Västra Götaland;;False
1488TC105;Trollhättan;Västra Götaland;50069;58.217868;12.341385;Trollhättan, Västra Götaland;;False
1489TB102;Långared;Västra Götaland;289;58.045332;12.520669;Långared, Västra Götaland;;False
1489TB103;Magra;Västra Götaland;204;58.113151;12.62335;Magra, Västra Götaland;;False
1489TB107;Gräfsnäs;Västra Götaland;417;58.08105;12.492747;Gräfsnäs, Västra Götaland;;False
1489TB109;Ingared;Västra Götaland;3099;57.85042;12.458476;Ingared, Västra Götaland;;False
1489TB111;Sollebrunn;Västra Götaland;1400;58.119999;12.533111;Sollebrunn, Västra Götaland;;False
1489TB112;Stora Mellby;Västra Götaland;363;58.141468;12.579785;Stora Mellby, Västra Götaland;;False
1489TC106;Alingsås;Västra Götaland;27895;57.980745;12.45817;Alingsås, Västra Götaland;;False
1490TB102;Aplared;Västra Götaland;431;57.650125;13.067945;Aplared, Västra Götaland;;False
1490TB103;Borgstena;Västra Götaland;434;57.883805;13.013169;Borgstena, Västra Götaland;;False
1490TB105;Bredared;Västra Götaland;355;57.805782;12.902985;Bredared, Västra Götaland;;False
1490TB106;Dalsjöfors;Västra Götaland;3915;57.721698;13.106962;Dalsjöfors, Västra Götaland;;False
1490TB107;Dannike;Västra Götaland;425;57.688771;13.227561;Dannike, Västra Götaland;;False
1490TB108;Fristad;Västra Götaland;6189;57.823881;13.010019;Fristad, Västra Götaland;;False
1490TB111;Hedared;Västra Götaland;356;57.808591;12.752778;Hedared, Västra Götaland;;False
1490TB112;Kinnarumma;Västra Götaland;394;57.593197;12.874498;Kinnarumma, Västra Götaland;;False
1490TB114;Rydboholm;Västra Götaland;966;57.654335;12.884362;Rydboholm, Västra Götaland;;False
1490TB115;Rångedala;Västra Götaland;452;57.793019;13.125345;Rångedala, Västra Götaland;;False
1490TB117;Sandhult;Västra Götaland;703;57.769562;12.820944;Sandhult, Västra Götaland;;False
1490TB120;Viskafors;Västra Götaland;2787;57.63075;12.849207;Viskafors, Västra Götaland;;False
1490TB121;Äspered;Västra Götaland;330;57.755126;13.178227;Äspered, Västra Götaland;;False
1490TB158;Sandared;Västra Götaland;3640;57.710057;12.793982;Sandared, Västra Götaland;;False
1490TC104;Borås;Västra Götaland;75565;57.721083;12.94074;Borås, Västra Götaland;;False
1491TB101;Blidsberg;Västra Götaland;536;57.930513;13.493323;Blidsberg, Västra Götaland;;False
1491TB102;Dalum;Västra Götaland;642;57.900296;13.464924;Dalum, Västra Götaland;;False
1491TB103;Gällstad;Västra Götaland;601;57.669055;13.433189;Gällstad, Västra Götaland;;False
1491TB105;Hökerum;Västra Götaland;726;57.838663;13.286221;Hökerum, Västra Götaland;;False
1491TB107;Nitta;Västra Götaland;336;57.827588;13.193772;Nitta, Västra Götaland;;False
1491TB108;Rånnaväg;Västra Götaland;378;57.676743;13.465877;Rånnaväg, Västra Götaland;;False
1491TB109;Timmele;Västra Götaland;785;57.861904;13.428551;Timmele, Västra Götaland;;False
1491TB110;Trädet;Västra Götaland;260;57.985633;13.531922;Trädet, Västra Götaland;;False
1491TB112;Vegby;Västra Götaland;611;57.67886;13.374226;Vegby, Västra Götaland;;False
1491TC111;Ulricehamn;Västra Götaland;11794;57.811217;13.444322;Ulricehamn, Västra Götaland;;False
1492TB101;Fengersfors;Västra Götaland;336;58.994944;12.463962;Fengersfors, Västra Götaland;;False
1492TB102;Tösse;Västra Götaland;319;58.971904;12.64486;Tösse, Västra Götaland;;False
1492TC103;Åmål;Västra Götaland;8954;58.969858;12.618004;Åmål, Västra Götaland;;False
1493TB101;Lugnås;Västra Götaland;613;58.644023;13.699969;Lugnås, Västra Götaland;;False
1493TB102;Lyrestad;Västra Götaland;468;58.80363;14.059127;Lyrestad, Västra Götaland;;False
1493TB104;Sjötorp;Västra Götaland;420;58.837351;13.980023;Sjötorp, Västra Götaland;;False
1493TB105;Ullervad;Västra Götaland;859;58.666834;13.856477;Ullervad, Västra Götaland;;False
1493TC103;Mariestad;Västra Götaland;16750;58.800977;13.751662;Mariestad, Västra Götaland;;False
1494TB101;Lidköping norra;Västra Götaland;4528;58.568247;13.00989;Lidköping norra, Västra Götaland;;False
1494TB102;Filsbäck;Västra Götaland;679;58.490767;13.245936;Filsbäck, Västra Götaland;;False
1494TB103;Järpås;Västra Götaland;777;58.38011;12.972543;Järpås, Västra Götaland;;False
1494TB106;Saleby;Västra Götaland;221;58.140254;13.603637;Saleby, Västra Götaland;;False
1494TB109;Vinninga;Västra Götaland;1063;58.453754;13.260211;Vinninga, Västra Götaland;;False
1494TB110;Örslösa;Västra Götaland;348;58.508818;13.004258;Örslösa, Västra Götaland;;False
1494TC104;Lidköping;Västra Götaland;23585;58.568247;13.00989;Lidköping, Västra Götaland;;False
1495TB101;Ardala;Västra Götaland;700;58.362007;13.338056;Ardala, Västra Götaland;;False
1495TB102;Axvall;Västra Götaland;1121;58.389166;13.574769;Axvall, Västra Götaland;;False
1495TB103;Eggby;Västra Götaland;218;58.433965;13.645112;Eggby, Västra Götaland;;False
1495TB105;Varnhem;Västra Götaland;700;58.385343;13.65057;Varnhem, Västra Götaland;;False
1495TC104;Skara;Västra Götaland;11475;58.384607;13.439767;Skara, Västra Götaland;;False
1496TB101;Igelstorp;Västra Götaland;675;58.398704;13.978407;Igelstorp, Västra Götaland;;False
1496TB102;Lerdala;Västra Götaland;539;58.477042;13.709034;Lerdala, Västra Götaland;;False
1496TB103;Skultorp;Västra Götaland;3895;58.341621;13.82799;Skultorp, Västra Götaland;;False
1496TB105;Stöpen;Västra Götaland;1505;58.478527;13.86672;Stöpen, Västra Götaland;;False
1496TB106;Tidan;Västra Götaland;1000;58.576338;14.012095;Tidan, Västra Götaland;;False
1496TB107;Timmersdala;Västra Götaland;955;58.527673;13.759432;Timmersdala, Västra Götaland;;False
1496TB108;Ulvåker;Västra Götaland;260;58.473624;13.928527;Ulvåker, Västra Götaland;;False
1496TB109;Väring;Västra Götaland;669;58.511243;13.960835;Väring, Västra Götaland;;False
1496TB110;Värsås;Västra Götaland;582;58.349996;14.04927;Värsås, Västra Götaland;;False
1496TC104;Skövde;Västra Götaland;40422;58.389845;13.844379;Skövde, Västra Götaland;;False
1497TB103;Korsberga;Västra Götaland;227;58.3;14.083333;Korsberga, Västra Götaland;;False
1497TC102;Hjo;Västra Götaland;6427;58.268521;14.280176;Hjo, Västra Götaland;;False
1498TB103;Madängsholm;Västra Götaland;411;58.140409;13.921067;Madängsholm, Västra Götaland;;False
1498TC104;Tidaholm;Västra Götaland;8285;58.140693;13.924145;Tidaholm, Västra Götaland;;False
1499TB102;Floby;Västra Götaland;1548;58.138443;13.336221;Floby, Västra Götaland;;False
1499TB103;Gudhem;Västra Götaland;427;58.226917;13.567102;Gudhem, Västra Götaland;;False
1499TB104;Kinnarp;Västra Götaland;949;58.074887;13.519676;Kinnarp, Västra Götaland;;False
1499TB106;Odensberg;Västra Götaland;296;58.154929;13.435662;Odensberg, Västra Götaland;;False
1499TB107;Stenstorp;Västra Götaland;1823;58.271317;13.713327;Stenstorp, Västra Götaland;;False
1499TB108;Torbjörntorp;Västra Götaland;441;58.210335;13.608092;Torbjörntorp, Västra Götaland;;False
1499TB109;Vartofta;Västra Götaland;514;58.096067;13.632775;Vartofta, Västra Götaland;;False
1499TB110;Åsarp;Västra Götaland;583;58.023848;13.568091;Åsarp, Västra Götaland;;False
1499TC101;Falköping;Västra Götaland;17924;58.164693;13.493855;Falköping, Västra Götaland;;False
1715TB101;Fagerås;Värmland;449;59.160306;12.877854;Fagerås, Värmland;;False
1715TB103;Högboda;Värmland;277;59.556837;13.053804;Högboda, Värmland;;False
1715TC102;Kil;Värmland;8381;59.567107;13.190544;Kil, Värmland;;False
1715TC102;Kil;Värmland;8381;59.567107;13.190544;Kil, Värmland;;False
1730TB102;Eda Glasbruk;Värmland;216;59.921335;12.263376;Eda Glasbruk, Värmland;;False
1730TB103;Koppom;Värmland;678;59.703155;12.149459;Koppom, Värmland;;False
1730TB104;Åmotfors;Värmland;1388;59.762586;12.362227;Åmotfors, Värmland;;False
1730TC101;Charlottenberg;Värmland;2503;59.88396;12.30492;Charlottenberg, Värmland;;False
1737TB104;Oleby;Värmland;358;60.135705;13.036516;Oleby, Värmland;;False
1737TB106;Sysslebäck;Värmland;402;60.730431;12.871173;Sysslebäck, Värmland;;False
1737TC107;Torsby;Värmland;4446;60.13552;13.006788;Torsby, Värmland;;False
1760TB101;Kyrksten;Värmland;234;59.437666;14.392946;Kyrksten, Värmland;;False
1760TC102;Storfors;Värmland;1904;59.463157;14.277864;Storfors, Värmland;;False
1761TB103;Tye;Värmland;392;59.345907;13.561706;Tye, Värmland;;False
1761TB104;Vidöåsen;Värmland;286;59.341977;13.453336;Vidöåsen, Värmland;;False
1761TC102;Skoghall;Värmland;14610;59.324185;13.470522;Skoghall, Värmland;;False
1762TC101;Munkfors;Värmland;2841;59.809955;13.488232;Munkfors, Värmland;;False
1763TB101;Deje;Värmland;2717;59.605939;13.463648;Deje, Värmland;;False
1763TB102;Dyvelsten;Värmland;271;59.514042;13.438148;Dyvelsten, Värmland;;False
1763TC103;Forshaga;Värmland;6433;59.529061;13.482603;Forshaga, Värmland;;False
1764TB103;Segmon;Värmland;426;59.274787;13.042653;Segmon, Värmland;;False
1764TB104;Slottsbron;Värmland;1068;59.323821;13.104132;Slottsbron, Värmland;;False
1764TC102;Grums;Värmland;4975;59.398724;13.034648;Grums, Värmland;;False
1765TB102;Töcksfors;Värmland;1292;59.509315;11.842519;Töcksfors, Värmland;;False
1765TC103;Årjäng;Värmland;3328;59.442445;12.109184;Årjäng, Värmland;;False
1766TB101;Lysvik;Värmland;331;60.015272;13.132996;Lysvik, Värmland;;False
1766TB102;Rottneros;Värmland;393;59.796396;13.109385;Rottneros, Värmland;;False
1766TB104;Uddheden;Värmland;260;59.945983;12.910784;Uddheden, Värmland;;False
1766TB105;Västra Ämtervik;Värmland;363;59.727172;13.143214;Västra Ämtervik, Värmland;;False
1766TC103;Sunne;Värmland;5138;59.890765;13.045421;Sunne, Värmland;;False
1780TB101;Alster;Värmland;822;59.398117;13.608431;Alster, Värmland;;False
1780TB104;Edsvalla;Värmland;701;59.436975;13.210344;Edsvalla, Värmland;;False
1780TB107;Molkom;Värmland;1887;59.602235;13.728668;Molkom, Värmland;;False
1780TB110;Skattkärr;Värmland;1960;59.417686;13.677096;Skattkärr, Värmland;;False
1780TB112;Vallargärdet;Värmland;580;59.477358;13.584232;Vallargärdet, Värmland;;False
1780TB113;Vålberg;Värmland;2764;59.395381;13.19347;Vålberg, Värmland;;False
1780TB114;Väse;Värmland;566;59.384482;13.852877;Väse, Värmland;;False
1780TC106;Karlstad;Värmland;69615;59.379913;13.502948;Karlstad, Värmland;;True
1781TB102;Bäckhammar;Värmland;281;59.158939;14.190986;Bäckhammar, Värmland;;False
1781TB105;Ölme;Värmland;205;59.362094;14.009947;Ölme, Värmland;;False
1781TC103;Kristinehamn;Värmland;18358;59.311361;14.11176;Kristinehamn, Värmland;;False
1782TB102;Lesjöfors;Värmland;713;59.97628;14.184061;Lesjöfors, Värmland;;False
1782TB104;Nykroppa;Värmland;648;59.622527;14.304553;Nykroppa, Värmland;;False
1782TC101;Filipstad;Värmland;5970;59.713548;14.168031;Filipstad, Värmland;;False
1783TB105;Ekshärad;Värmland;955;60.174282;13.493761;Ekshärad, Värmland;;False
1783TB107;Råda;Värmland;339;60.005367;13.597393;Råda, Värmland;;False
1783TB108;Sunnemo;Värmland;288;59.884283;13.722264;Sunnemo, Värmland;;False
1783TB109;Uddeholm;Värmland;563;60.024766;13.619007;Uddeholm, Värmland;;False
1783TC104;Hagfors;Värmland;4731;60.087994;13.646585;Hagfors, Värmland;;False
1784TB102;Edane;Värmland;672;59.62982;12.822921;Edane, Värmland;;False
1784TB104;Gunnarskog;Värmland;279;59.813528;12.572332;Gunnarskog, Värmland;;False
1784TB105;Jössefors;Värmland;695;59.673429;12.504671;Jössefors, Värmland;;False
1784TB106;Klässbol;Värmland;304;59.537569;12.743575;Klässbol, Värmland;;False
1784TB108;Sulvik;Värmland;377;59.67827;12.415219;Sulvik, Värmland;;False
1784TC101;Arvika;Värmland;14186;59.654355;12.591622;Arvika, Värmland;;False
1785TB104;Värmlandsbro;Värmland;277;59.181513;13.01479;Värmlandsbro, Värmland;;False
1785TC103;Säffle;Värmland;8823;59.072789;13.163091;Säffle, Värmland;;False
1814TB102;Gropen;Örebro;270;59.162062;14.830566;Gropen, Örebro;;False
1814TB104;Mullhyttan;Örebro;561;59.151568;14.683658;Mullhyttan, Örebro;;False
1814TB105;Vintrosa;Örebro;3156;59.255355;14.961855;Vintrosa, Örebro;;False
1814TC101;Fjugesta;Örebro;2381;59.173408;14.870949;Fjugesta, Örebro;;False
1860TB101;Finnerödja;Örebro;517;58.92854;14.44113;Finnerödja, Örebro;;False
1860TB102;Hasselfors;Örebro;379;59.083459;14.65499;Hasselfors, Örebro;;False
1860TC103;Laxå;Örebro;3161;58.982954;14.619779;Laxå, Örebro;;False
1861TB102;Hjortkvarn;Örebro;220;58.90056;15.434484;Hjortkvarn, Örebro;;False
1861TB103;Pålsboda;Örebro;1610;59.065183;15.33732;Pålsboda, Örebro;;False
1861TB104;Sköllersta;Örebro;1112;59.137692;15.337695;Sköllersta, Örebro;;False
1861TB105;Vretstorp;Örebro;941;59.023555;14.866828;Vretstorp, Örebro;;False
1861TC101;Hallsberg;Örebro;8321;58.993131;15.32773;Hallsberg, Örebro;;False
1862TC101;Degerfors;Örebro;7047;59.153172;14.429411;Degerfors, Örebro;;False
1863TB101;Grythyttan;Örebro;801;59.705624;14.536707;Grythyttan, Örebro;;False
1863TC103;Hällefors;Örebro;4124;59.78295;14.522491;Hällefors, Örebro;;False
1864TB104;Ställdalen;Örebro;423;59.934554;14.945443;Ställdalen, Örebro;;False
1864TC102;Kopparberg;Örebro;2697;59.874506;14.990384;Kopparberg, Örebro;;False
1880TB101;Askersby;Örebro;243;59.14896;15.474376;Askersby, Örebro;;False
1880TB104;Ekeby-Almby;Örebro;2192;59.258469;15.336875;Ekeby-Almby, Örebro;;False
1880TB105;Garphyttan;Örebro;1602;59.302204;14.949523;Garphyttan, Örebro;;False
1880TB106;Glanshammar;Örebro;784;59.318326;15.400557;Glanshammar, Örebro;;False
1880TB107;Hampetorp;Örebro;306;59.140068;15.668353;Hampetorp, Örebro;;False
1880TB108;Hovsta;Örebro;2734;59.34657;15.227392;Hovsta, Örebro;;False
1880TB110;Latorpsbruk;Örebro;776;59.275532;14.987604;Latorpsbruk, Örebro;;False
1880TB112;Norra Bro;Örebro;1086;59.226584;15.250518;Norra Bro, Örebro;;False
1880TB114;Odensbacken;Örebro;1275;59.162539;15.525526;Odensbacken, Örebro;;False
1880TB115;Stora Mellösa;Örebro;829;59.210613;15.49755;Stora Mellösa, Örebro;;False
1880TB116;Ölmbrotorp;Örebro;508;59.389639;15.244761;Ölmbrotorp, Örebro;;False
1880TC117;Örebro;Örebro;128658;59.274737;15.214998;Örebro, Örebro;;True
1881TB101;Ekeby;Örebro;482;59.166667;15.266667;Ekeby, Örebro;;False
1881TC103;Kumla;Örebro;17889;59.117423;15.109026;Kumla, Örebro;;False
1882TB103;Olshammar;Örebro;225;58.75554;14.799502;Olshammar, Örebro;;False
1882TB106;Zinkgruvan;Örebro;334;58.815435;15.106626;Zinkgruvan, Örebro;;False
1882TB107;Åmmeberg;Örebro;443;58.86561;14.999192;Åmmeberg, Örebro;;False
1882TB108;Åsbro;Örebro;1460;58.99708;15.057334;Åsbro, Örebro;;False
1882TC101;Askersund;Örebro;4271;58.8355;14.925755;Askersund, Örebro;;False
1883TC101;Karlskoga;Örebro;27261;59.388301;14.5526;Karlskoga, Örebro;;False
1884TB101;Gyttorp;Örebro;648;59.504923;14.966624;Gyttorp, Örebro;;False
1884TB104;Striberg;Örebro;312;59.545432;14.941675;Striberg, Örebro;;False
1885TB101;Fellingsbro;Örebro;1374;59.434397;15.589001;Fellingsbro, Örebro;;False
1885TB102;Frövi;Örebro;2533;59.466198;15.365069;Frövi, Örebro;;False
1885TB103;Gusselby;Örebro;274;59.645375;15.218535;Gusselby, Örebro;;False
1885TB106;Rockhammar;Örebro;249;59.528885;15.449055;Rockhammar, Örebro;;False
1885TB107;Storå;Örebro;1847;59.7136;15.135533;Storå, Örebro;;False
1885TB108;Stråssa;Örebro;263;59.739452;15.20154;Stråssa, Örebro;;False
1885TB109;Vedevåg;Örebro;669;59.524706;15.297993;Vedevåg, Örebro;;False
1885TC104;Lindesberg;Örebro;9575;59.593056;15.226496;Lindesberg, Örebro;;False
1904TB101;Riddarhyttan;Västmanland;297;59.808647;15.538597;Riddarhyttan, Västmanland;;False
1904TC102;Skinnskatteberg;Västmanland;2236;59.792577;15.745683;Skinnskatteberg, Västmanland;;False
1907TB101;Ramnäs;Västmanland;1185;59.776193;16.19783;Ramnäs, Västmanland;;False
1907TB103;Virsbo;Västmanland;1263;59.871368;16.048057;Virsbo, Västmanland;;False
1907TC102;Surahammar;Västmanland;6316;59.707058;16.221994;Surahammar, Västmanland;;False
1960TB102;Valskog;Västmanland;692;59.444012;15.949726;Valskog, Västmanland;;False
1960TC101;Kungsör;Västmanland;6108;59.413971;16.087752;Kungsör, Västmanland;;False
1961TB102;Kolbäck;Västmanland;2108;59.562481;16.235983;Kolbäck, Västmanland;;False
1961TB103;Strömsholm;Västmanland;700;59.523741;16.248736;Strömsholm, Västmanland;;False
1961TB104;Sörstafors;Västmanland;284;59.583061;16.210761;Sörstafors, Västmanland;;False
1961TC101;Hallstahammar;Västmanland;10147;59.613448;16.230161;Hallstahammar, Västmanland;;False
1962TC101;Norberg;Västmanland;4387;60.061747;15.95491;Norberg, Västmanland;;False
1980TB101;Kvicksund;Västmanland;2282;59.457644;16.314485;Kvicksund, Västmanland;;False
1980TB102;Barkarö;Västmanland;2029;59.555793;16.504193;Barkarö, Västmanland;;False
1980TB103;Dingtuna;Västmanland;1118;59.572402;16.388665;Dingtuna, Västmanland;;False
1980TB104;Enhagen-Ekbacken;Västmanland;1064;59.56562;16.53183;Enhagen-Ekbacken, Västmanland;;False
1980TB106;Harkie;Västmanland;361;59.53189;16.714112;Harkie, Västmanland;;False
1980TB107;Lycksta;Västmanland;283;59.695182;16.567965;Lycksta, Västmanland;;False
1980TB110;Munga;Västmanland;335;59.744661;16.52196;Munga, Västmanland;;False
1980TB111;Skultuna;Västmanland;3226;59.721776;16.428147;Skultuna, Västmanland;;False
1980TB112;Tidö-Lindö;Västmanland;718;59.512822;16.531577;Tidö-Lindö, Västmanland;;False
1980TB113;Tillberga;Västmanland;2191;59.686704;16.618347;Tillberga, Västmanland;;False
1980TB114;Tortuna;Västmanland;416;59.674702;16.722464;Tortuna, Västmanland;;False
1980TB115;Irsta;Västmanland;2942;59.602556;16.693707;Irsta, Västmanland;;False
1980TC116;Västerås;Västmanland;131643;59.611099;16.546367;Västerås, Västmanland;;True
1981TB102;Möklinta;Västmanland;320;60.086028;16.544777;Möklinta, Västmanland;;False
1981TB103;Ransta;Västmanland;858;59.81141;16.638089;Ransta, Västmanland;;False
1981TB105;Salbohed;Västmanland;245;59.911787;16.349275;Salbohed, Västmanland;;False
1981TB106;Sätra Brunn;Västmanland;322;59.862903;16.442051;Sätra Brunn, Västmanland;;False
1981TB107;Västerfärnebo;Västmanland;509;59.94613;16.279683;Västerfärnebo, Västmanland;;False
1981TC104;Sala;Västmanland;13702;59.920226;16.605644;Sala, Västmanland;;False
1982TB102;Hedkärra;Västmanland;203;59.97604;15.743986;Hedkärra, Västmanland;;False
1982TC101;Fagersta;Västmanland;11771;60.003862;15.790605;Fagersta, Västmanland;;False
1983TB101;Kolsva;Västmanland;2375;59.599841;15.844;Kolsva, Västmanland;;False
1983TB103;Munktorp;Västmanland;503;59.532577;16.134284;Munktorp, Västmanland;;False
1983TC102;Köping;Västmanland;18605;59.579954;15.879021;Köping, Västmanland;;False
1984TB102;Götlunda;Västmanland;263;59.354146;15.667716;Götlunda, Västmanland;;False
1984TB103;Medåker;Västmanland;213;59.451516;15.754719;Medåker, Västmanland;;False
1984TC101;Arboga;Västmanland;10906;59.394187;15.839664;Arboga, Västmanland;;False
2021TB101;Järna;Dalarna;1590;60.55;14.35;Järna, Dalarna;;False
2021TB104;Skålö;Dalarna;290;60.563861;14.301572;Skålö, Dalarna;;False
2021TB106;Äppelbo;Dalarna;477;60.485884;14.013852;Äppelbo, Dalarna;;False
2021TC105;Vansbro;Dalarna;2137;60.461057;14.259809;Vansbro, Dalarna;;False
