index;City;State;city-state;Latitude;Longitude;Population;AlternateNames;isStateCapital
0;Adana;Adana;Adana, Adana;37.47;35.593;2274106.0;;True
1;Ankara;Ankara;Ankara, Ankara;39.71;32.363;5782285.0;;True
2;Antalya;Antalya;Antalya, Antalya;36.76;30.945;2688004.0;;True
3;Aydın;Aydın;Aydın, Aydın;37.733;27.954;1148241.0;;True
4;Balıkesir;Balıkesir;Balıkesir, Balıkesir;39.87;27.763;1257590.0;;True
5;Bursa;Bursa;Bursa, Bursa;40.104;29.009;3194720.0;;True
6;Denizli;Denizli;Denizli, Denizli;37.678;29.331;1056332.0;;True
7;Diyarbakır;Diyarbakır;Diyarbakır, Diyarbakır;38.011;40.234;1804880.0;;True
8;Erzurum;Erzurum;Erzurum, Erzurum;40.022;41.108;749754.0;;True
9;Eskişehir;Eskişehir;Eskişehir, Eskişehir;39.734;30.59;906617.0;;True
10;Gaziantep;Gaziantep;Gaziantep, Gaziantep;37.118;37.262;2154051.0;;True
11;Antakya;Hatay;Antakya, Hatay;36.408;36.238;1686043.0;;True
12;İstanbul;İstanbul;İstanbul, İstanbul;41.194;28.964;15907951.0;;True
13;İzmir;İzmir;İzmir, İzmir;38.604;27.362;4462056.0;;True
14;Kayseri;Kayseri;Kayseri, Kayseri;38.797;35.384;1441523.0;;True
15;İzmit;Kocaeli;Kocaeli, Kocaeli;40.899;29.543;2079072.0;Kocaeli;True
16;Konya;Konya;Konya, Konya;38.013;32.848;2296347.0;;True
17;Malatya;Malatya;Malatya, Malatya;38.51;38.206;812580.0;;True
18;Manisa;Manisa;Manisa, Manisa;38.743;28.127;1468279.0;;True
19;Mardin;Mardin;Mardin, Mardin;37.324;40.891;870374.0;;True
20;Mersin;Mersin;Mersin, Mersin;36.933;34.493;1916432.0;;True
21;Muğla;Muğla;Muğla, Muğla;36.947;28.484;1048185.0;;True
22;Ordu;Ordu;Ordu, Ordu;40.737;37.399;763190.0;;True
23;Adapazarı;Sakarya;Sakarya, Sakarya;40.785;30.404;1080080.0;Sakarya;True
24;Samsun;Samsun;Samsun, Samsun;41.257;36.188;1368488.0;;True
25;Şanlıurfa;Şanlıurfa;Şanlıurfa, Şanlıurfa;37.345;39.037;2170110.0;;True
26;Tekirdağ;Tekirdağ;Tekirdağ, Tekirdağ;41.074;27.42;1142451.0;;True
27;Trabzon;Trabzon;Trabzon, Trabzon;40.811;39.813;818023.0;;True
28;Van;Van;Van, Van;38.546;43.588;1128749.0;;True
29;Adıyaman;Adıyaman;Adıyaman, Adıyaman;37.763;38.277;273241.0;;True
30;Akçatepe;Adıyaman;Akçatepe, Adıyaman;37.812;38.018;774.0;;False
31;Akıncılar;Adıyaman;Akıncılar, Adıyaman;37.757;38.818;1640.0;;False
32;Alidam;Adıyaman;Alidam, Adıyaman;37.913;38.876;780.0;;False
33;Atmalı;Adıyaman;Atmalı, Adıyaman;37.707;37.981;1632.0;;False
34;Bağbaşı;Adıyaman;Bağbaşı, Adıyaman;37.899;38.735;1145.0;;False
35;Balkar;Adıyaman;Balkar, Adıyaman;37.733;37.563;2035.0;;False
36;Belören;Adıyaman;Belören, Adıyaman;37.639;37.581;2020.0;;False
37;Besni;Adıyaman;Besni, Adıyaman;37.693;37.863;39111.0;;False
38;Bölükyayla;Adıyaman;Bölükyayla, Adıyaman;37.88;38.477;2044.0;;False
39;Büyükkavaklı;Adıyaman;Büyükkavaklı, Adıyaman;37.702;38.259;926.0;;False
40;Çakırhüyük;Adıyaman;Çakırhüyük, Adıyaman;37.56;37.856;1770.0;;False
41;Çamdere;Adıyaman;Çamdere, Adıyaman;37.945;38.524;1698.0;;False
42;Çatbahçe;Adıyaman;Çatbahçe, Adıyaman;37.972;38.606;961.0;;False
43;Çelikhan;Adıyaman;Çelikhan, Adıyaman;38.035;38.246;8463.0;;False
44;Çemberlitaş;Adıyaman;Çemberlitaş, Adıyaman;37.813;38.346;846.0;;False
45;Çomak;Adıyaman;Çomak, Adıyaman;37.524;37.992;877.0;;False
46;Erikli;Adıyaman;Erikli, Adıyaman;37.874;38.807;1623.0;;False
47;Gerger;Adıyaman;Gerger, Adıyaman;38.029;39.032;2757.0;;False
48;Gölbaşı;Adıyaman;Gölbaşı, Adıyaman;37.783;37.641;33976.0;;False
49;Gölyurt;Adıyaman;Gölyurt, Adıyaman;38.159;39.158;1226.0;;False
50;Gümüşkaya;Adıyaman;Gümüşkaya, Adıyaman;37.422;38.174;1758.0;;False
51;Güzelsu;Adıyaman;Güzelsu, Adıyaman;37.878;38.919;1080.0;;False
52;Harmanlı;Adıyaman;Harmanlı, Adıyaman;37.839;37.743;1527.0;;False
53;İnlice;Adıyaman;İnlice, Adıyaman;37.987;38.433;2058.0;;False
54;Kâhta;Adıyaman;Kâhta, Adıyaman;37.785;38.625;89195.0;;False
55;Karaburun;Adıyaman;Karaburun, Adıyaman;37.758;37.592;906.0;;False
56;Kaşlıca;Adıyaman;Kaşlıca, Adıyaman;37.803;37.973;1268.0;;False
57;Kayaönü;Adıyaman;Kayaönü, Adıyaman;37.804;38.193;1093.0;;False
58;Kesmetepe;Adıyaman;Kesmetepe, Adıyaman;37.547;37.843;1539.0;;False
59;Kömür;Adıyaman;Kömür, Adıyaman;37.866;38.427;2906.0;;False
60;Köseceli;Adıyaman;Köseceli, Adıyaman;37.558;37.73;1893.0;;False
61;Kutluca;Adıyaman;Kutluca, Adıyaman;37.594;37.976;962.0;;False
62;Kuyulu;Adıyaman;Kuyulu, Adıyaman;37.507;38.227;1501.0;;False
63;Menzil;Adıyaman;Menzil, Adıyaman;37.765;38.761;2432.0;Durak;False
64;Narince;Adıyaman;Narince, Adıyaman;37.874;38.75;1405.0;;False
65;Oyratlı;Adıyaman;Oyratlı, Adıyaman;37.633;37.841;1382.0;;False
66;Ozan;Adıyaman;Ozan, Adıyaman;37.831;37.699;949.0;;False
67;Pınarbaşı;Adıyaman;Pınarbaşı, Adıyaman;38.032;38.183;3036.0;;False
68;Salkımbağı;Adıyaman;Salkımbağı, Adıyaman;37.83;38.576;1465.0;;False
69;Şambayat;Adıyaman;Şambayat, Adıyaman;37.687;38.044;3372.0;;False
70;Samsat;Adıyaman;Samsat, Adıyaman;37.579;38.482;3790.0;;False
71;Sayören;Adıyaman;Sayören, Adıyaman;37.486;38.151;1501.0;;False
72;Sincik;Adıyaman;Sincik, Adıyaman;38.038;38.616;4448.0;;False
73;Suvarlı;Adıyaman;Suvarlı, Adıyaman;37.54;37.632;1911.0;;False
74;Tut;Adıyaman;Tut, Adıyaman;37.797;37.915;3295.0;;False
75;Üçgöz;Adıyaman;Üçgöz, Adıyaman;37.64;37.964;1009.0;;False
76;Uzunkuyu;Adıyaman;Uzunkuyu, Adıyaman;37.626;37.707;781.0;;False
77;Yapraklı;Adıyaman;Yapraklı, Adıyaman;37.829;38.818;768.0;;False
78;Yarmakaya;Adıyaman;Yarmakaya, Adıyaman;37.716;38.17;817.0;;False
79;Yaylakonak;Adıyaman;Yaylakonak, Adıyaman;37.82;38.081;1613.0;;False
80;Yukarınasırlı;Adıyaman;Yukarınasırlı, Adıyaman;37.654;37.606;835.0;;False
81;Adayazı;Afyon­karahisar;Adayazı, Afyon­karahisar;39.063;31.267;993.0;;False
82;Afyonkarahisar;Afyon­karahisar;Afyonkarahisar, Afyon­karahisar;38.756;30.539;256901.0;Afyon, Akcin, Ata, Erenler, Kışlacık, Sadıkbey;True
83;Ahmetpaşa;Afyon­karahisar;Ahmetpaşa, Afyon­karahisar;38.731;30.311;2595.0;;False
84;Akharım;Afyon­karahisar;Akharım, Afyon­karahisar;38.64;30.241;2584.0;;False
85;Akkonak;Afyon­karahisar;Akkonak, Afyon­karahisar;38.525;30.894;1108.0;;False
86;Akören;Afyon­karahisar;Akören, Afyon­karahisar;38.772;30.371;2986.0;;False
87;Akyuva;Afyon­karahisar;Akyuva, Afyon­karahisar;38.541;30.485;862.0;;False
88;Alanyurt;Afyon­karahisar;Alanyurt, Afyon­karahisar;38.997;30.745;899.0;;False
89;Anıtkaya;Afyon­karahisar;Anıtkaya, Afyon­karahisar;38.955;30.346;1676.0;;False
90;Aşağıpiribeyli;Afyon­karahisar;Aşağıpiribeyli, Afyon­karahisar;38.923;31.603;751.0;;False
91;Atlıhisar;Afyon­karahisar;Atlıhisar, Afyon­karahisar;38.45;30.583;1246.0;;False
92;Ayazini;Afyon­karahisar;Ayazini, Afyon­karahisar;39.014;30.574;915.0;;False
93;Balçıkhisar;Afyon­karahisar;Balçıkhisar, Afyon­karahisar;38.438;30.521;1275.0;;False
94;Başmakçı;Afyon­karahisar;Başmakçı, Afyon­karahisar;37.896;30.012;4906.0;;False
95;Bayat;Afyon­karahisar;Bayat, Afyon­karahisar;38.984;30.926;4194.0;;False
96;Beyköy;Afyon­karahisar;Beyköy, Afyon­karahisar;39.047;30.466;842.0;;False
97;Beyyazı;Afyon­karahisar;Beyyazı, Afyon­karahisar;38.833;30.588;3277.0;;False
98;Bolvadin;Afyon­karahisar;Bolvadin, Afyon­karahisar;38.713;31.048;33818.0;;False
99;Bozhüyük;Afyon­karahisar;Bozhüyük, Afyon­karahisar;38.958;30.581;1649.0;;False
100;Bulca;Afyon­karahisar;Bulca, Afyon­karahisar;38.786;30.309;926.0;;False
101;Büyükkarabağ;Afyon­karahisar;Büyükkarabağ, Afyon­karahisar;38.778;31.249;1043.0;;False
102;Çakırözü;Afyon­karahisar;Çakırözü, Afyon­karahisar;38.562;30.511;1133.0;;False
103;Çalışlar;Afyon­karahisar;Çalışlar, Afyon­karahisar;38.856;30.694;1760.0;;False
104;Çavdarlı;Afyon­karahisar;Çavdarlı, Afyon­karahisar;38.745;30.69;1149.0;;False
105;Çay;Afyon­karahisar;Çay, Afyon­karahisar;38.593;31.029;14667.0;;False
106;Çayırbağ;Afyon­karahisar;Çayırbağ, Afyon­karahisar;38.85;30.532;4415.0;;False
107;Çiçektepe;Afyon­karahisar;Çiçektepe, Afyon­karahisar;38.288;30.542;1207.0;;False
108;Çıkrık;Afyon­karahisar;Çıkrık, Afyon­karahisar;38.874;30.609;2461.0;;False
109;Çobanlar;Afyon­karahisar;Çobanlar, Afyon­karahisar;38.702;30.783;9140.0;;False
110;Davulga;Afyon­karahisar;Davulga, Afyon­karahisar;38.981;31.373;2399.0;;False
111;Dazkırı;Afyon­karahisar;Dazkırı, Afyon­karahisar;37.92;29.86;5759.0;;False
112;Değirmenayvalı;Afyon­karahisar;Değirmenayvalı, Afyon­karahisar;38.675;30.53;2888.0;;False
113;Derbent;Afyon­karahisar;Derbent, Afyon­karahisar;38.941;30.992;1072.0;;False
114;Dereçine;Afyon­karahisar;Dereçine, Afyon­karahisar;38.488;31.258;1990.0;;False
115;Derekarabağ;Afyon­karahisar;Derekarabağ, Afyon­karahisar;38.709;31.192;785.0;;False
116;Deresinek;Afyon­karahisar;Deresinek, Afyon­karahisar;38.558;31.156;829.0;;False
117;Dikici;Afyon­karahisar;Dikici, Afyon­karahisar;38.027;30.184;1052.0;;False
118;Dinar;Afyon­karahisar;Dinar, Afyon­karahisar;38.069;30.168;26708.0;;False
119;Dişli;Afyon­karahisar;Dişli, Afyon­karahisar;38.791;31.029;2813.0;;False
120;Doğanlı;Afyon­karahisar;Doğanlı, Afyon­karahisar;38.285;30.435;839.0;;False
121;Döğer;Afyon­karahisar;Döğer, Afyon­karahisar;39.127;30.392;5493.0;;False
122;Düzağaç;Afyon­karahisar;Düzağaç, Afyon­karahisar;38.797;30.163;2046.0;;False
123;Efe;Afyon­karahisar;Efe, Afyon­karahisar;38.6;30.629;1165.0;;False
124;Emirdağ;Afyon­karahisar;Emirdağ, Afyon­karahisar;39.02;31.151;22978.0;;False
125;Erkmen;Afyon­karahisar;Erkmen, Afyon­karahisar;38.759;30.483;7948.0;;False
126;Evciler;Afyon­karahisar;Evciler, Afyon­karahisar;38.041;29.885;3329.0;;False
127;Fethibey;Afyon­karahisar;Fethibey, Afyon­karahisar;38.852;30.499;2674.0;;False
128;Garipçe;Afyon­karahisar;Garipçe, Afyon­karahisar;38.77;30.347;1120.0;;False
129;Gazlıgöl;Afyon­karahisar;Gazlıgöl, Afyon­karahisar;38.935;30.499;2483.0;;False
130;Gebeceler;Afyon­karahisar;Gebeceler, Afyon­karahisar;38.771;30.744;3470.0;;False
131;Göçerli;Afyon­karahisar;Göçerli, Afyon­karahisar;38.297;30.451;1018.0;;False
132;Gökçek;Afyon­karahisar;Gökçek, Afyon­karahisar;38.011;29.96;1669.0;;False
133;Gömü;Afyon­karahisar;Gömü, Afyon­karahisar;39.058;31.082;2221.0;;False
134;Göynük;Afyon­karahisar;Göynük, Afyon­karahisar;38.785;30.86;943.0;;False
135;Güney;Afyon­karahisar;Güney, Afyon­karahisar;38.8;30.083;2329.0;;False
136;Hacıbeyli;Afyon­karahisar;Hacıbeyli, Afyon­karahisar;39.059;30.281;850.0;;False
137;Haydarlı;Afyon­karahisar;Haydarlı, Afyon­karahisar;38.261;30.384;2145.0;;False
138;Hocalar;Afyon­karahisar;Hocalar, Afyon­karahisar;38.578;29.971;2323.0;;False
139;İhsaniye;Afyon­karahisar;İhsaniye, Afyon­karahisar;39.033;30.418;3374.0;;False
140;İnli;Afyon­karahisar;İnli, Afyon­karahisar;38.518;30.789;1458.0;;False
141;İscehisar;Afyon­karahisar;İscehisar, Afyon­karahisar;38.863;30.751;13372.0;;False
142;Işıklar;Afyon­karahisar;Işıklar, Afyon­karahisar;38.67;30.74;7326.0;;False
143;Kale;Afyon­karahisar;Kale, Afyon­karahisar;38.821;30.9;822.0;Kaleköy;False
144;Karaadilli;Afyon­karahisar;Karaadilli, Afyon­karahisar;38.307;30.627;2182.0;;False
145;Karaağaç;Afyon­karahisar;Karaağaç, Afyon­karahisar;38.89;30.732;2332.0;;False
146;Karaağaçkuyusu;Afyon­karahisar;Karaağaçkuyusu, Afyon­karahisar;38.017;29.783;1185.0;;False
147;Karaarslan;Afyon­karahisar;Karaarslan, Afyon­karahisar;38.678;30.649;990.0;;False
148;Karacaahmet;Afyon­karahisar;Karacaahmet, Afyon­karahisar;39.028;30.346;1520.0;;False
149;Karakaya;Afyon­karahisar;Karakaya, Afyon­karahisar;38.897;30.81;758.0;;False
150;Karamık;Afyon­karahisar;Karamık, Afyon­karahisar;38.465;30.893;854.0;;False
151;Karamıkkaracaören;Afyon­karahisar;Karamıkkaracaören, Afyon­karahisar;38.545;30.928;2400.0;;False
152;Karayokuş;Afyon­karahisar;Karayokuş, Afyon­karahisar;38.783;31.109;957.0;;False
153;Kayıhan;Afyon­karahisar;Kayıhan, Afyon­karahisar;39.008;30.507;2119.0;;False
154;Kemerkaya;Afyon­karahisar;Kemerkaya, Afyon­karahisar;38.89;31.064;1679.0;;False
155;Kılıçarslan;Afyon­karahisar;Kılıçarslan, Afyon­karahisar;38.732;30.343;2632.0;;False
156;Kınık;Afyon­karahisar;Kınık, Afyon­karahisar;38.272;30.495;760.0;;False
157;Kınık;Afyon­karahisar;Kınık, Afyon­karahisar;38.762;30.134;1143.0;;False
158;Kırca;Afyon­karahisar;Kırca, Afyon­karahisar;38.511;31.23;1145.0;;False
159;Kırka;Afyon­karahisar;Kırka, Afyon­karahisar;38.726;30.231;1964.0;;False
160;Kızık;Afyon­karahisar;Kızık, Afyon­karahisar;38.52;30.282;784.0;;False
161;Kızıldağ;Afyon­karahisar;Kızıldağ, Afyon­karahisar;38.589;30.796;1225.0;;False
162;Kızılören;Afyon­karahisar;Kızılören, Afyon­karahisar;38.259;30.152;1365.0;;False
163;Kocaöz;Afyon­karahisar;Kocaöz, Afyon­karahisar;38.732;30.846;2757.0;;False
164;Kocatepe;Afyon­karahisar;Kocatepe, Afyon­karahisar;38.689;30.498;3165.0;Büyükkalecik;False
165;Koçbeyli;Afyon­karahisar;Koçbeyli, Afyon­karahisar;38.441;30.913;1346.0;;False
166;Konarı;Afyon­karahisar;Konarı, Afyon­karahisar;38.859;30.859;971.0;;False
167;Köprülü;Afyon­karahisar;Köprülü, Afyon­karahisar;38.826;30.379;990.0;;False
168;Küçükhüyük;Afyon­karahisar;Küçükhüyük, Afyon­karahisar;38.762;30.3;1872.0;;False
169;Kurucaova;Afyon­karahisar;Kurucaova, Afyon­karahisar;38.74;30.929;961.0;;False
170;Kusura;Afyon­karahisar;Kusura, Afyon­karahisar;38.365;30.228;838.0;;False
171;Mahmut;Afyon­karahisar;Mahmut, Afyon­karahisar;38.505;30.547;1636.0;Mahmutköy;False
172;Nuribey;Afyon­karahisar;Nuribey, Afyon­karahisar;38.676;30.62;2995.0;;False
173;Olukpınar;Afyon­karahisar;Olukpınar, Afyon­karahisar;38.954;30.735;847.0;;False
174;Örenkaya;Afyon­karahisar;Örenkaya, Afyon­karahisar;38.37;30.161;1325.0;;False
175;Ortapınar;Afyon­karahisar;Ortapınar, Afyon­karahisar;38.525;30.503;774.0;;False
176;Özburun;Afyon­karahisar;Özburun, Afyon­karahisar;38.827;31.005;2045.0;;False
177;Pazarağaç;Afyon­karahisar;Pazarağaç, Afyon­karahisar;38.575;30.928;2540.0;;False
178;Reşadiye;Afyon­karahisar;Reşadiye, Afyon­karahisar;38.421;30.169;1002.0;;False
179;Salar;Afyon­karahisar;Salar, Afyon­karahisar;38.686;30.586;4535.0;;False
180;Sandıklı;Afyon­karahisar;Sandıklı, Afyon­karahisar;38.466;30.273;34468.0;;False
181;Serban;Afyon­karahisar;Serban, Afyon­karahisar;38.646;30.351;1462.0;Savran;False
182;Seydiler;Afyon­karahisar;Seydiler, Afyon­karahisar;38.887;30.832;2065.0;;False
183;Sinanpaşa;Afyon­karahisar;Sinanpaşa, Afyon­karahisar;38.744;30.244;3544.0;;False
184;Sorkun;Afyon­karahisar;Sorkun, Afyon­karahisar;38.445;30.056;803.0;;False
185;Şuhut;Afyon­karahisar;Şuhut, Afyon­karahisar;38.533;30.546;15024.0;;False
186;Sultandağı;Afyon­karahisar;Sultandağı, Afyon­karahisar;38.531;31.232;5199.0;;False
187;Sülümenli;Afyon­karahisar;Sülümenli, Afyon­karahisar;38.72;30.727;3703.0;;False
188;Sülün;Afyon­karahisar;Sülün, Afyon­karahisar;38.698;30.568;3341.0;;False
189;Susuz;Afyon­karahisar;Susuz, Afyon­karahisar;38.807;30.611;4757.0;;False
190;Taşoluk;Afyon­karahisar;Taşoluk, Afyon­karahisar;38.6;30.355;3581.0;;False
191;Tatarlı;Afyon­karahisar;Tatarlı, Afyon­karahisar;38.242;30.496;2814.0;;False
192;Tınaztepe;Afyon­karahisar;Tınaztepe, Afyon­karahisar;38.729;30.378;2869.0;;False
193;Tokuşlar;Afyon­karahisar;Tokuşlar, Afyon­karahisar;38.757;30.167;1032.0;;False
194;Yakasinek;Afyon­karahisar;Yakasinek, Afyon­karahisar;38.554;31.173;1302.0;;False
195;Yarışlı;Afyon­karahisar;Yarışlı, Afyon­karahisar;38.548;30.643;1647.0;;False
196;Yaylabağı;Afyon­karahisar;Yaylabağı, Afyon­karahisar;38.975;30.537;2234.0;;False
197;Yeşilçiftlik;Afyon­karahisar;Yeşilçiftlik, Afyon­karahisar;38.541;31.22;2037.0;;False
198;Yeşilhisar;Afyon­karahisar;Yeşilhisar, Afyon­karahisar;38.674;29.939;1435.0;;False
199;Yeşilyurt;Afyon­karahisar;Yeşilyurt, Afyon­karahisar;38.597;31.063;1267.0;;False
200;Yıprak;Afyon­karahisar;Yıprak, Afyon­karahisar;38.333;30.463;1497.0;;False
201;Yüreğil;Afyon­karahisar;Yüreğil, Afyon­karahisar;37.88;29.876;1471.0;;False
202;Ağrı;Ağrı;Ağrı, Ağrı;;;39.72;Karaköse, Aşağıküpkıran;True
203;Akdilek;Ağrı;Akdilek, Ağrı;39.158;42.964;855.0;;False
204;Alatay;Ağrı;Alatay, Ağrı;39.263;42.959;762.0;;False
205;Aşağıdumanlı;Ağrı;Aşağıdumanlı, Ağrı;39.597;43.335;1114.0;;False
206;Aşağıköşkköy;Ağrı;Aşağıköşkköy, Ağrı;39.42;42.759;1032.0;;False
207;Aşkale;Ağrı;Aşkale, Ağrı;39.796;43.034;1043.0;;False
208;Ballıbostan;Ağrı;Ballıbostan, Ağrı;39.676;43.188;1121.0;;False
209;Baloluk;Ağrı;Baloluk, Ağrı;39.734;43.076;869.0;;False
210;Bardaklı;Ağrı;Bardaklı, Ağrı;39.683;44.066;1363.0;;False
211;Bozoğlak;Ağrı;Bozoğlak, Ağrı;39.241;42.98;1316.0;;False
212;Çakırbey;Ağrı;Çakırbey, Ağrı;39.276;42.947;1179.0;;False
213;Çaputlu;Ağrı;Çaputlu, Ağrı;39.019;42.896;809.0;;False
214;Çetenli;Ağrı;Çetenli, Ağrı;39.44;44.02;800.0;;False
215;Çiftlik;Ağrı;Çiftlik, Ağrı;39.574;44.219;1511.0;Çiftlikköy;False
216;Çukurbağ;Ağrı;Çukurbağ, Ağrı;39.113;43.017;1399.0;;False
217;Dalbahçe;Ağrı;Dalbahçe, Ağrı;39.668;43.845;807.0;;False
218;Davut;Ağrı;Davut, Ağrı;39.469;43.68;781.0;Davutköy;False
219;Dedeli;Ağrı;Dedeli, Ağrı;39.182;43.066;3004.0;;False
220;Değirmendüzü;Ağrı;Değirmendüzü, Ağrı;39.21;42.965;2941.0;;False
221;Diyadin;Ağrı;Diyadin, Ağrı;39.54;43.677;19556.0;;False
222;Doğansu;Ağrı;Doğansu, Ağrı;39.137;42.739;4770.0;;False
223;Doğubayazıt;Ağrı;Doğubayazıt, Ağrı;39.548;44.081;79798.0;;False
224;Dorukdibi;Ağrı;Dorukdibi, Ağrı;39.387;42.777;1003.0;;False
225;Eleşkirt;Ağrı;Eleşkirt, Ağrı;39.801;42.677;9918.0;;False
226;Eliaçık;Ağrı;Eliaçık, Ağrı;39.737;43.143;827.0;;False
227;Ergeçli;Ağrı;Ergeçli, Ağrı;39.038;42.825;1246.0;;False
228;Ergözü;Ağrı;Ergözü, Ağrı;39.743;42.794;904.0;;False
229;Eskikonak;Ağrı;Eskikonak, Ağrı;39.209;42.871;1032.0;;False
230;Esnemez;Ağrı;Esnemez, Ağrı;39.465;43.905;1498.0;;False
231;Gençali;Ağrı;Gençali, Ağrı;39.064;42.873;923.0;;False
232;Goncalı;Ağrı;Goncalı, Ağrı;39.865;42.87;895.0;;False
233;Gürbulak;Ağrı;Gürbulak, Ağrı;39.418;44.352;2142.0;;False
234;Hacıhalit;Ağrı;Hacıhalit, Ağrı;39.433;43.698;847.0;;False
235;Hamur;Ağrı;Hamur, Ağrı;39.61;42.992;3282.0;;False
236;Karabulak;Ağrı;Karabulak, Ağrı;39.669;44.05;1681.0;;False
237;Kazanbey;Ağrı;Kazanbey, Ağrı;39.07;42.894;2166.0;;False
238;Konakbeyi;Ağrı;Konakbeyi, Ağrı;39.147;42.862;780.0;;False
239;Kumluca;Ağrı;Kumluca, Ağrı;39.595;43.439;1519.0;;False
240;Mollasüleyman;Ağrı;Mollasüleyman, Ağrı;39.814;42.732;760.0;;False
241;Oğlaksuyu;Ağrı;Oğlaksuyu, Ağrı;39.455;42.771;1030.0;;False
242;Ortadamla;Ağrı;Ortadamla, Ağrı;39.203;43.042;1000.0;;False
243;Ortadirek;Ağrı;Ortadirek, Ağrı;39.501;43.991;890.0;;False
244;Özdemir;Ağrı;Özdemir, Ağrı;39.06;42.772;1196.0;;False
245;Patnos;Ağrı;Patnos, Ağrı;39.234;42.863;59941.0;;False
246;Sağdıç;Ağrı;Sağdıç, Ağrı;39.524;44.064;1075.0;;False
247;Somkaya;Ağrı;Somkaya, Ağrı;39.397;43.993;962.0;;False
248;Suluca;Ağrı;Suluca, Ağrı;39.304;42.754;842.0;;False
249;Tahir;Ağrı;Tahir, Ağrı;39.863;42.438;1402.0;;False
250;Taşkesen;Ağrı;Taşkesen, Ağrı;39.459;43.706;805.0;;False
251;Taşlıçay;Ağrı;Taşlıçay, Ağrı;39.635;43.378;5992.0;;False
252;Telçeker;Ağrı;Telçeker, Ağrı;39.466;44.245;1578.0;;False
253;Toprakkale;Ağrı;Toprakkale, Ağrı;39.848;42.82;1189.0;;False
254;Tutak;Ağrı;Tutak, Ağrı;39.542;42.772;7175.0;;False
255;Tutak;Ağrı;Tutak, Ağrı;39.721;43.772;933.0;;False
256;Ulukent;Ağrı;Ulukent, Ağrı;39.449;43.591;1248.0;;False
257;Yakınca;Ağrı;Yakınca, Ağrı;39.665;43.074;869.0;;False
258;Yalçınkaya;Ağrı;Yalçınkaya, Ağrı;39.177;42.848;1561.0;;False
259;Yayladüzü;Ağrı;Yayladüzü, Ağrı;39.823;42.304;1742.0;;False
260;Yılanlı;Ağrı;Yılanlı, Ağrı;39.527;43.994;2044.0;;False
261;Yücekapı;Ağrı;Yücekapı, Ağrı;39.753;42.739;2096.0;Oklavalı;False
262;Yukarıdalören;Ağrı;Yukarıdalören, Ağrı;39.425;43.612;750.0;;False
263;Yukarıdamla;Ağrı;Yukarıdamla, Ağrı;39.216;43.064;883.0;;False
264;Yukarıgöçmez;Ağrı;Yukarıgöçmez, Ağrı;39.304;42.908;1805.0;;False
265;Yukarıküpkıran;Ağrı;Yukarıküpkıran, Ağrı;39.709;43.256;1179.0;;False
266;Zirekli;Ağrı;Zirekli, Ağrı;39.043;42.973;1465.0;;False
267;Acıpınar;Aksaray;Acıpınar, Aksaray;38.528;33.849;772.0;;False
268;Ağaçören;Aksaray;Ağaçören, Aksaray;38.868;33.914;2838.0;;False
269;Akçakent;Aksaray;Akçakent, Aksaray;38.084;34.089;799.0;;False
270;Akhisar;Aksaray;Akhisar, Aksaray;38.291;34.097;897.0;;False
271;Akmezar;Aksaray;Akmezar, Aksaray;38.461;34.315;847.0;;False
272;Aksaray;Aksaray;Aksaray, Aksaray;38.372;34.028;253112.0;;True
273;Altınkaya;Aksaray;Altınkaya, Aksaray;38.617;33.784;1197.0;;False
274;Armutlu;Aksaray;Armutlu, Aksaray;38.193;33.895;1075.0;;False
275;Bağlıkaya;Aksaray;Bağlıkaya, Aksaray;38.502;33.946;2932.0;;False
276;Balcı;Aksaray;Balcı, Aksaray;38.725;34.103;1064.0;;False
277;Bekarlar;Aksaray;Bekarlar, Aksaray;38.383;34.427;994.0;;False
278;Camili;Aksaray;Camili, Aksaray;38.87;33.951;985.0;;False
279;Demirci;Aksaray;Demirci, Aksaray;38.378;34.288;3957.0;;False
280;Doğantarla;Aksaray;Doğantarla, Aksaray;38.363;34.215;1505.0;;False
281;Eskil;Aksaray;Eskil, Aksaray;38.402;33.413;18019.0;;False
282;Eşmekaya;Aksaray;Eşmekaya, Aksaray;38.261;33.445;2599.0;;False
283;Gaziemir;Aksaray;Gaziemir, Aksaray;38.338;34.397;915.0;;False
284;Gençosman;Aksaray;Gençosman, Aksaray;38.412;34.066;888.0;;False
285;Gökkaya;Aksaray;Gökkaya, Aksaray;38.652;34.0;924.0;;False
286;Gözlükuyu;Aksaray;Gözlükuyu, Aksaray;38.178;34.1;1302.0;;False
287;Gücünkaya;Aksaray;Gücünkaya, Aksaray;38.395;34.131;1211.0;;False
288;Gülağaç;Aksaray;Gülağaç, Aksaray;38.396;34.346;4880.0;;False
289;Gülpınar;Aksaray;Gülpınar, Aksaray;38.418;34.361;2810.0;;False
290;Güneşli;Aksaray;Güneşli, Aksaray;38.147;33.502;1647.0;;False
291;Güzelyurt;Aksaray;Güzelyurt, Aksaray;38.278;34.372;2592.0;;False
292;Harmandalı;Aksaray;Harmandalı, Aksaray;38.93;33.958;1039.0;;False
293;Helvadere;Aksaray;Helvadere, Aksaray;38.191;34.202;2560.0;;False
294;Hırkatol;Aksaray;Hırkatol, Aksaray;38.407;33.931;1209.0;;False
295;Ihlara;Aksaray;Ihlara, Aksaray;38.239;34.307;2289.0;;False
296;Ilısu;Aksaray;Ilısu, Aksaray;38.234;34.343;923.0;;False
297;İncesu;Aksaray;İncesu, Aksaray;38.164;33.804;1606.0;;False
298;Karacaören;Aksaray;Karacaören, Aksaray;38.129;34.066;1606.0;;False
299;Karaören;Aksaray;Karaören, Aksaray;38.244;34.134;1635.0;;False
300;Karataş;Aksaray;Karataş, Aksaray;38.254;34.094;810.0;;False
301;Karkın;Aksaray;Karkın, Aksaray;38.205;34.171;1336.0;;False
302;Kızılkaya;Aksaray;Kızılkaya, Aksaray;38.356;34.232;1243.0;;False
303;Kutlu;Aksaray;Kutlu, Aksaray;38.29;33.856;1713.0;;False
304;Ortaköy;Aksaray;Ortaköy, Aksaray;38.737;34.041;19558.0;;False
305;Ozancık;Aksaray;Ozancık, Aksaray;38.668;34.201;797.0;;False
306;Sağlık;Aksaray;Sağlık, Aksaray;38.304;34.069;2447.0;;False
307;Saratlı;Aksaray;Saratlı, Aksaray;38.448;34.235;1993.0;;False
308;Sarıkaraman;Aksaray;Sarıkaraman, Aksaray;38.77;34.196;1014.0;;False
309;Sarıyahşi;Aksaray;Sarıyahşi, Aksaray;38.985;33.846;3477.0;;False
310;Selime;Aksaray;Selime, Aksaray;38.311;34.255;1763.0;;False
311;Sevinçli;Aksaray;Sevinçli, Aksaray;38.36;34.111;1631.0;;False
312;Sofular;Aksaray;Sofular, Aksaray;38.357;34.43;915.0;;False
313;Sultanhanı;Aksaray;Sultanhanı, Aksaray;38.245;33.551;11214.0;;False
314;Taşpınar;Aksaray;Taşpınar, Aksaray;38.18;34.024;2772.0;;False
315;Topakkaya;Aksaray;Topakkaya, Aksaray;38.454;33.93;2391.0;;False
316;Yenikent;Aksaray;Yenikent, Aksaray;38.344;33.751;5366.0;;False
317;Yeşilova;Aksaray;Yeşilova, Aksaray;38.41;33.838;3752.0;;False
318;Yeşiltepe;Aksaray;Yeşiltepe, Aksaray;38.463;33.765;2239.0;;False
319;Yuva;Aksaray;Yuva, Aksaray;38.246;34.156;1334.0;;False
320;Alpaslan;Amasya;Alpaslan, Amasya;40.807;36.343;1098.0;;False
321;Amasya;Amasya;Amasya, Amasya;40.65;35.833;116353.0;;True
322;Büyükkızılca;Amasya;Büyükkızılca, Amasya;40.516;35.765;800.0;;False
323;Çaydibi;Amasya;Çaydibi, Amasya;40.76;36.277;769.0;;False
324;Doğantepe;Amasya;Doğantepe, Amasya;40.595;35.602;827.0;;False
325;Esençay;Amasya;Esençay, Amasya;40.668;36.38;765.0;;False
326;Ezinepazar;Amasya;Ezinepazar, Amasya;40.555;36.055;1129.0;;False
327;Göynücek;Amasya;Göynücek, Amasya;40.398;35.533;4589.0;;False
328;Gümüşhacıköy;Amasya;Gümüşhacıköy, Amasya;40.874;35.217;15261.0;;False
329;Hamamözü;Amasya;Hamamözü, Amasya;40.785;35.025;1513.0;;False
330;İlyas;Amasya;İlyas, Amasya;40.561;35.823;822.0;;False
331;Kayadüzü;Amasya;Kayadüzü, Amasya;40.884;35.591;1319.0;;False
332;Merzifon;Amasya;Merzifon, Amasya;40.875;35.462;62533.0;;False
333;Muşruf;Amasya;Muşruf, Amasya;40.897;35.429;991.0;Yakacık;False
334;Suluova;Amasya;Suluova, Amasya;40.835;35.646;39522.0;;False
335;Taşova;Amasya;Taşova, Amasya;40.753;36.329;11250.0;;False
336;Uluköy;Amasya;Uluköy, Amasya;40.787;36.418;998.0;;False
337;Uygur;Amasya;Uygur, Amasya;40.556;35.988;762.0;;False
338;Yeşilyenice;Amasya;Yeşilyenice, Amasya;40.684;35.946;797.0;;False
339;Ziyaret;Amasya;Ziyaret, Amasya;40.677;35.863;4205.0;;False
340;Ardahan;Ardahan;Ardahan, Ardahan;41.11;42.704;23295.0;;True
341;Aşıkşenlik;Ardahan;Aşıkşenlik, Ardahan;41.144;43.214;802.0;;False
342;Bağdaşen;Ardahan;Bağdaşen, Ardahan;41.06;42.391;882.0;;False
343;Çamlıçatak;Ardahan;Çamlıçatak, Ardahan;41.127;42.832;939.0;;False
344;Çıldır;Ardahan;Çıldır, Ardahan;41.058;43.212;1719.0;;False
345;Damal;Ardahan;Damal, Ardahan;41.342;42.842;2772.0;;False
346;Göle;Ardahan;Göle, Ardahan;40.793;42.609;5653.0;;False
347;Hanak;Ardahan;Hanak, Ardahan;41.236;42.847;2819.0;;False
348;Köprülü;Ardahan;Köprülü, Ardahan;40.889;42.463;1997.0;;False
349;Koyunpınarı;Ardahan;Koyunpınarı, Ardahan;41.242;42.781;779.0;;False
350;Posof;Ardahan;Posof, Ardahan;41.512;42.729;2063.0;;False
351;Samandöken;Ardahan;Samandöken, Ardahan;40.843;42.511;789.0;;False
352;Senemoğlu;Ardahan;Senemoğlu, Ardahan;40.781;42.662;986.0;;False
353;Sulakyurt;Ardahan;Sulakyurt, Ardahan;41.163;42.624;912.0;;False
354;Tunçoluk;Ardahan;Tunçoluk, Ardahan;41.01;42.987;807.0;;False
355;Ardanuç;Artvin;Ardanuç, Artvin;41.129;42.06;5354.0;;False
356;Arhavi;Artvin;Arhavi, Artvin;41.353;41.31;17558.0;;False
357;Artvin;Artvin;Artvin, Artvin;41.182;41.821;26180.0;;True
358;Borçka;Artvin;Borçka, Artvin;41.364;41.679;11147.0;;False
359;Demirciler;Artvin;Demirciler, Artvin;41.372;41.634;756.0;;False
360;Hopa;Artvin;Hopa, Artvin;41.394;41.421;23108.0;;False
361;Kemalpaşa;Artvin;Kemalpaşa, Artvin;41.483;41.526;5675.0;;False
362;Kılıçkaya;Artvin;Kılıçkaya, Artvin;40.713;41.48;787.0;;False
363;Murgul;Artvin;Murgul, Artvin;41.276;41.567;4814.0;;False
364;Ortaköy;Artvin;Ortaköy, Artvin;41.252;41.99;943.0;;False
365;Şavşat;Artvin;Şavşat, Artvin;41.243;42.364;5885.0;;False
366;Seyitler;Artvin;Seyitler, Artvin;41.196;41.843;3773.0;;False
367;Sugören;Artvin;Sugören, Artvin;41.38;41.405;1040.0;;False
368;Yusufeli;Artvin;Yusufeli, Artvin;40.823;41.549;7204.0;;False
369;Abdipaşa;Bartın;Abdipaşa, Bartın;41.519;32.558;2619.0;;False
370;Akağaç;Bartın;Akağaç, Bartın;41.522;32.399;1038.0;;False
371;Akçalı;Bartın;Akçalı, Bartın;41.605;32.394;814.0;;False
372;Amasra;Bartın;Amasra, Bartın;41.749;32.389;5988.0;;False
373;Bakioğlu;Bartın;Bakioğlu, Bartın;41.443;32.344;760.0;;False
374;Bartın;Bartın;Bartın, Bartın;41.632;32.336;83744.0;Ağdacı, Şiremirçavuş;False
375;Ecikler;Bartın;Ecikler, Bartın;41.423;32.296;869.0;;False
376;Epçiler;Bartın;Epçiler, Bartın;41.597;32.445;1139.0;;False
377;Esenyurt;Bartın;Esenyurt, Bartın;41.545;32.256;875.0;;False
378;Gecen;Bartın;Gecen, Bartın;41.585;32.317;882.0;;False
379;Geriş;Bartın;Geriş, Bartın;41.57;32.429;1177.0;;False
380;Gürgenpınarı;Bartın;Gürgenpınarı, Bartın;41.643;32.28;841.0;;False
381;Güzelcehisar;Bartın;Güzelcehisar, Bartın;41.647;32.204;766.0;;False
382;Hasankadı;Bartın;Hasankadı, Bartın;41.338;32.392;2115.0;;False
383;Karainler;Bartın;Karainler, Bartın;41.662;32.435;956.0;;False
384;Kozcağız;Bartın;Kozcağız, Bartın;41.476;32.34;7308.0;;False
385;Kumluca;Bartın;Kumluca, Bartın;41.449;32.467;2076.0;;False
386;Kurucaşile;Bartın;Kurucaşile, Bartın;41.841;32.716;1923.0;;False
387;Özbaşı;Bartın;Özbaşı, Bartın;41.382;32.419;808.0;;False
388;Terkehaliller;Bartın;Terkehaliller, Bartın;41.567;32.377;987.0;;False
389;Terkehatipler;Bartın;Terkehatipler, Bartın;41.554;32.344;935.0;;False
390;Tuzcular;Bartın;Tuzcular, Bartın;41.571;32.318;3184.0;;False
391;Ulus;Bartın;Ulus, Bartın;41.586;32.641;3796.0;;False
392;Yeşilkaya;Bartın;Yeşilkaya, Bartın;41.681;32.411;863.0;;False
393;Yıldız;Bartın;Yıldız, Bartın;41.647;32.364;1111.0;;False
394;Alıçlı;Batman;Alıçlı, Batman;38.212;41.518;908.0;;False
395;Balpınar;Batman;Balpınar, Batman;37.868;41.055;5750.0;Segirkan, Yeniköy;False
396;Batman;Batman;Batman, Batman;37.876;41.118;461354.0;Aydınkonak, Demiryol, Erköklü, İkiztepe;False
397;Bekirhan;Batman;Bekirhan, Batman;38.141;41.298;2841.0;;False
398;Beşiri;Batman;Beşiri, Batman;37.916;41.294;12168.0;;False
399;Beşpınar;Batman;Beşpınar, Batman;37.846;41.605;1776.0;;False
400;Bıçakçı;Batman;Bıçakçı, Batman;37.984;41.15;760.0;;False
401;Binatlı;Batman;Binatlı, Batman;37.847;41.216;2397.0;;False
402;Çayönü;Batman;Çayönü, Batman;38.125;41.511;1183.0;;False
403;Çevrimova;Batman;Çevrimova, Batman;37.84;41.273;1052.0;;False
404;Demirlipınar;Batman;Demirlipınar, Batman;37.961;41.176;764.0;;False
405;Doğankavak;Batman;Doğankavak, Batman;37.963;41.227;1482.0;;False
406;Durucak;Batman;Durucak, Batman;37.995;41.346;785.0;;False
407;Geçitaltı;Batman;Geçitaltı, Batman;38.278;41.484;816.0;;False
408;Gercüş;Batman;Gercüş, Batman;37.565;41.387;4410.0;;False
409;Hasankeyf;Batman;Hasankeyf, Batman;37.712;41.411;4056.0;;False
410;İkiköprü;Batman;İkiköprü, Batman;37.965;41.331;3437.0;;False
411;Karayün;Batman;Karayün, Batman;37.835;41.114;1010.0;;False
412;Karpuzlu;Batman;Karpuzlu, Batman;38.122;41.235;1146.0;;False
413;Kayapınar;Batman;Kayapınar, Batman;37.559;41.166;2144.0;;False
414;Koçaklı;Batman;Koçaklı, Batman;38.075;41.342;787.0;;False
415;Kocalar;Batman;Kocalar, Batman;37.966;41.119;1027.0;;False
416;Kösetarla;Batman;Kösetarla, Batman;37.893;41.2;767.0;;False
417;Kozluk;Batman;Kozluk, Batman;38.193;41.489;27933.0;;False
418;Kuyubaşı;Batman;Kuyubaşı, Batman;37.842;41.083;1923.0;;False
419;Oymataş;Batman;Oymataş, Batman;37.799;41.021;1247.0;;False
420;Recepler;Batman;Recepler, Batman;37.824;41.178;767.0;;False
421;Samanyolu;Batman;Samanyolu, Batman;38.107;41.227;803.0;;False
422;Sason;Batman;Sason, Batman;38.33;41.417;12668.0;;False
423;Taşlıdere;Batman;Taşlıdere, Batman;38.221;41.261;837.0;;False
424;Tuzlagözü;Batman;Tuzlagözü, Batman;38.181;41.57;753.0;;False
425;Ulaşlı;Batman;Ulaşlı, Batman;38.177;41.32;966.0;;False
426;Ünsaldı;Batman;Ünsaldı, Batman;38.059;41.436;811.0;;False
427;Yanıkkaya;Batman;Yanıkkaya, Batman;38.247;41.304;927.0;;False
428;Yaylıca;Batman;Yaylıca, Batman;38.007;41.231;1149.0;;False
429;Yeniçağlar;Batman;Yeniçağlar, Batman;38.149;41.237;1567.0;;False
430;Yenipınar;Batman;Yenipınar, Batman;37.843;41.301;1184.0;;False
431;Yolağzı;Batman;Yolağzı, Batman;37.526;41.353;1619.0;;False
432;Yücebağ;Batman;Yücebağ, Batman;38.397;41.271;2759.0;;False
433;Arpalı;Bayburt;Arpalı, Bayburt;40.367;40.107;2699.0;;False
434;Aydıntepe;Bayburt;Aydıntepe, Bayburt;40.391;40.151;3171.0;;False
435;Bayburt;Bayburt;Bayburt, Bayburt;40.257;40.225;48762.0;;True
436;Demirözü;Bayburt;Demirözü, Bayburt;40.164;39.892;3393.0;;False
437;Gökçedere;Bayburt;Gökçedere, Bayburt;40.134;39.747;2240.0;;False
438;Konursu;Bayburt;Konursu, Bayburt;40.403;40.267;1035.0;;False
439;Aşağıköy;Bilecik;Aşağıköy, Bilecik;40.116;29.992;890.0;;False
440;Bayırköy;Bilecik;Bayırköy, Bilecik;40.282;30.02;1786.0;;False
441;Bilecik;Bilecik;Bilecik, Bilecik;40.143;29.98;72238.0;Pelitözü;False
442;Bozüyük;Bilecik;Bozüyük, Bilecik;39.907;30.036;73504.0;;False
443;Çaltı;Bilecik;Çaltı, Bilecik;40.045;30.247;1043.0;;False
444;Dodurga;Bilecik;Dodurga, Bilecik;39.802;29.908;1922.0;;False
445;Gölpazarı;Bilecik;Gölpazarı, Bilecik;40.284;30.316;6234.0;;False
446;İnhisar;Bilecik;İnhisar, Bilecik;40.049;30.389;919.0;;False
447;Küre;Bilecik;Küre, Bilecik;40.088;30.15;919.0;;False
448;Osmaneli;Bilecik;Osmaneli, Bilecik;40.358;30.013;16508.0;;False
449;Pazaryeri;Bilecik;Pazaryeri, Bilecik;39.995;29.906;6252.0;;False
450;Söğüt;Bilecik;Söğüt, Bilecik;40.015;30.183;14071.0;;False
451;Vezirhan;Bilecik;Vezirhan, Bilecik;40.244;30.021;2960.0;;False
452;Yenipazar;Bilecik;Yenipazar, Bilecik;40.179;30.52;1040.0;;False
453;Adaklı;Bingöl;Adaklı, Bingöl;39.229;40.483;3123.0;;False
454;Ağaçeli;Bingöl;Ağaçeli, Bingöl;38.93;40.709;1090.0;;False
455;Arakonak;Bingöl;Arakonak, Bingöl;38.975;41.131;2519.0;;False
456;Aşağıakpınar;Bingöl;Aşağıakpınar, Bingöl;38.86;40.475;1088.0;;False
457;Bağlıisa;Bingöl;Bağlıisa, Bingöl;39.129;41.185;984.0;;False
458;Bingöl;Bingöl;Bingöl, Bingöl;38.885;40.497;133423.0;;True
459;Çavuşlar;Bingöl;Çavuşlar, Bingöl;38.965;40.816;2124.0;;False
460;Çeltiksuyu;Bingöl;Çeltiksuyu, Bingöl;38.857;40.578;1130.0;;False
461;Ekinyolu;Bingöl;Ekinyolu, Bingöl;38.907;40.574;1381.0;;False
462;Elmalı;Bingöl;Elmalı, Bingöl;39.029;40.765;856.0;;False
463;Genç;Bingöl;Genç, Bingöl;38.753;40.567;20881.0;;False
464;Göltepesi;Bingöl;Göltepesi, Bingöl;38.96;40.592;986.0;;False
465;Gözeler;Bingöl;Gözeler, Bingöl;38.848;40.688;858.0;;False
466;Güveçli;Bingöl;Güveçli, Bingöl;38.847;40.524;1236.0;;False
467;Hacılar;Bingöl;Hacılar, Bingöl;39.099;40.823;955.0;;False
468;Hazarşah;Bingöl;Hazarşah, Bingöl;39.008;40.89;1503.0;;False
469;Ilıcalar;Bingöl;Ilıcalar, Bingöl;38.981;40.679;3004.0;;False
470;Kargapazarı;Bingöl;Kargapazarı, Bingöl;39.313;41.097;1354.0;;False
471;Karlıova;Bingöl;Karlıova, Bingöl;39.299;41.014;8304.0;;False
472;Kiğı;Bingöl;Kiğı, Bingöl;39.314;40.346;2773.0;;False
473;Sancak;Bingöl;Sancak, Bingöl;39.094;40.387;2532.0;;False
474;Sarıçiçek;Bingöl;Sarıçiçek, Bingöl;40.444;39.856;1913.0;;False
475;Servi;Bingöl;Servi, Bingöl;38.572;40.321;1097.0;;False
476;Solhan;Bingöl;Solhan, Bingöl;38.961;41.054;20410.0;;False
477;Sudüğünü;Bingöl;Sudüğünü, Bingöl;39.047;40.432;1174.0;;False
478;Taşlıçay;Bingöl;Taşlıçay, Bingöl;39.28;40.959;1451.0;;False
479;Toklular;Bingöl;Toklular, Bingöl;39.263;40.982;1214.0;;False
480;Yayladere;Bingöl;Yayladere, Bingöl;39.23;40.07;945.0;;False
481;Yedisu;Bingöl;Yedisu, Bingöl;39.434;40.545;1470.0;;False
482;Yenibaşlar;Bingöl;Yenibaşlar, Bingöl;38.997;40.686;1318.0;;False
483;Yenidal;Bingöl;Yenidal, Bingöl;38.921;40.924;975.0;;False
484;Yiğitharman;Bingöl;Yiğitharman, Bingöl;38.991;40.968;1052.0;;False
485;Yiğitler;Bingöl;Yiğitler, Bingöl;39.183;40.793;1271.0;;False
486;Adilcevaz;Bitlis;Adilcevaz, Bitlis;38.805;42.735;15180.0;;False
487;Ahlat;Bitlis;Ahlat, Bitlis;38.756;42.493;28904.0;;False
488;Akçıra;Bitlis;Akçıra, Bitlis;38.851;43.098;1018.0;;False
489;Arıdağ;Bitlis;Arıdağ, Bitlis;38.346;42.164;1011.0;;False
490;Arpalıseki;Bitlis;Arpalıseki, Bitlis;38.497;41.799;952.0;Çimen, Yüksekova;False
491;Aşağıkolbaşı;Bitlis;Aşağıkolbaşı, Bitlis;38.544;42.113;1107.0;;False
492;Aşağısüphan;Bitlis;Aşağısüphan, Bitlis;38.824;42.874;1058.0;;False
493;Aydınlar;Bitlis;Aydınlar, Bitlis;38.89;42.938;1990.0;;False
494;Bahçedere;Bitlis;Bahçedere, Bitlis;38.801;42.638;1074.0;;False
495;Benekli;Bitlis;Benekli, Bitlis;38.54;42.23;1211.0;;False
496;Bitlis;Bitlis;Bitlis, Bitlis;38.4;42.108;54567.0;;True
497;Boğazönü;Bitlis;Boğazönü, Bitlis;38.461;41.772;1118.0;;False
498;Çığır;Bitlis;Çığır, Bitlis;38.469;41.828;1567.0;;False
499;Değirmen;Bitlis;Değirmen, Bitlis;38.606;41.989;2384.0;Değirmenköy;False
500;Değirmenaltı;Bitlis;Değirmenaltı, Bitlis;38.43;42.174;1094.0;;False
501;Döküktaş;Bitlis;Döküktaş, Bitlis;37.997;42.633;1010.0;;False
502;Erler;Bitlis;Erler, Bitlis;38.484;41.728;838.0;;False
503;Gayda;Bitlis;Gayda, Bitlis;38.173;42.391;1181.0;;False
504;Gölbaşı;Bitlis;Gölbaşı, Bitlis;38.644;42.098;4531.0;;False
505;Göldüzü;Bitlis;Göldüzü, Bitlis;38.819;43.018;1530.0;;False
506;Günkırı;Bitlis;Günkırı, Bitlis;38.589;41.969;4609.0;;False
507;Güroymak;Bitlis;Güroymak, Bitlis;38.577;42.02;26445.0;;False
508;Güzelli;Bitlis;Güzelli, Bitlis;38.656;42.103;909.0;;False
509;Güzelsu;Bitlis;Güzelsu, Bitlis;38.759;42.192;1808.0;;False
510;Heybeli;Bitlis;Heybeli, Bitlis;38.949;43.042;766.0;;False
511;Hizan;Bitlis;Hizan, Bitlis;38.225;42.428;12827.0;;False
512;İkizler;Bitlis;İkizler, Bitlis;38.564;41.609;1233.0;;False
513;Kavakbaşı;Bitlis;Kavakbaşı, Bitlis;38.483;41.82;1718.0;;False
514;Kavuştuk;Bitlis;Kavuştuk, Bitlis;38.813;43.064;907.0;;False
515;Kireçtaşı;Bitlis;Kireçtaşı, Bitlis;38.359;42.096;1176.0;;False
516;Kıyıdüzü;Bitlis;Kıyıdüzü, Bitlis;38.575;42.38;1366.0;;False
517;Koyunlu;Bitlis;Koyunlu, Bitlis;38.495;41.851;1016.0;;False
518;Küçüksu;Bitlis;Küçüksu, Bitlis;38.442;42.323;955.0;;False
519;Küllüce;Bitlis;Küllüce, Bitlis;38.551;41.935;1006.0;;False
520;Mutki;Bitlis;Mutki, Bitlis;38.41;41.921;3036.0;;False
521;Oduncular;Bitlis;Oduncular, Bitlis;38.568;42.17;1002.0;;False
522;Ovakışla;Bitlis;Ovakışla, Bitlis;38.821;42.326;3928.0;;False
523;Sarıkum;Bitlis;Sarıkum, Bitlis;38.619;42.421;1894.0;;False
524;Taşharman;Bitlis;Taşharman, Bitlis;38.702;42.333;949.0;;False
525;Tatvan;Bitlis;Tatvan, Bitlis;38.496;42.286;82103.0;;False
526;Yamaçköy;Bitlis;Yamaçköy, Bitlis;38.579;41.983;922.0;;False
527;Yeniköprü;Bitlis;Yeniköprü, Bitlis;38.731;42.416;941.0;;False
528;Yolalan;Bitlis;Yolalan, Bitlis;38.271;42.308;3090.0;;False
529;Yoncabaşı;Bitlis;Yoncabaşı, Bitlis;38.442;42.35;882.0;;False
530;Yukarısüphan;Bitlis;Yukarısüphan, Bitlis;38.827;42.859;761.0;;False
531;Yuvalıdam;Bitlis;Yuvalıdam, Bitlis;38.253;41.734;830.0;;False
532;Bolu;Bolu;Bolu, Bolu;40.736;31.609;186078.0;Karaköy, Kürkçüler;True
533;Çaygökpınar;Bolu;Çaygökpınar, Bolu;40.71;31.724;760.0;;False
534;Doğancı;Bolu;Doğancı, Bolu;40.701;31.573;1034.0;;False
535;Dörtdivan;Bolu;Dörtdivan, Bolu;40.717;32.058;2681.0;;False
536;Gerede;Bolu;Gerede, Bolu;40.799;32.195;23879.0;;False
537;Gökçesu;Bolu;Gökçesu, Bolu;40.895;31.962;1741.0;;False
538;Gölköy;Bolu;Gölköy, Bolu;40.703;31.51;3521.0;;False
539;Göynük;Bolu;Göynük, Bolu;40.401;30.787;4332.0;;False
540;Karacasu;Bolu;Karacasu, Bolu;40.69;31.622;2199.0;;False
541;Kıbrıscık;Bolu;Kıbrıscık, Bolu;40.409;31.85;1107.0;;False
542;Mengen;Bolu;Mengen, Bolu;40.94;32.075;5436.0;;False
543;Mudurnu;Bolu;Mudurnu, Bolu;40.466;31.212;5428.0;;False
544;Seben;Bolu;Seben, Bolu;40.411;31.572;2339.0;;False
545;Taşkesti;Bolu;Taşkesti, Bolu;40.575;31.018;2304.0;;False
546;Yeniçağa;Bolu;Yeniçağa, Bolu;40.772;32.033;4429.0;;False
547;Ağlasun;Burdur;Ağlasun, Burdur;37.648;30.535;3510.0;;False
548;Altınyayla;Burdur;Altınyayla, Burdur;36.997;29.548;2936.0;;False
549;Askeriye;Burdur;Askeriye, Burdur;37.762;30.352;1389.0;;False
550;Bağsaray;Burdur;Bağsaray, Burdur;37.509;30.416;1294.0;;False
551;Bayır;Burdur;Bayır, Burdur;37.104;29.704;1140.0;Yeni;False
552;Bucak;Burdur;Bucak, Burdur;37.457;30.59;47150.0;;False
553;Büğdüz;Burdur;Büğdüz, Burdur;37.62;30.28;1506.0;;False
554;Burdur;Burdur;Burdur, Burdur;37.719;30.284;95907.0;;True
555;Çamlık;Burdur;Çamlık, Burdur;37.492;30.7;1280.0;;False
556;Çatağıl;Burdur;Çatağıl, Burdur;37.688;30.387;1331.0;;False
557;Çavdır;Burdur;Çavdır, Burdur;37.151;29.691;3786.0;;False
558;Çeltikçi;Burdur;Çeltikçi, Burdur;37.537;30.482;2025.0;;False
559;Gökçebağ;Burdur;Gökçebağ, Burdur;37.781;30.38;1211.0;;False
560;Gölhisar;Burdur;Gölhisar, Burdur;37.143;29.509;16806.0;;False
561;Gündoğdu;Burdur;Gündoğdu, Burdur;37.328;30.555;957.0;;False
562;Güney;Burdur;Güney, Burdur;37.498;29.554;1033.0;;False
563;Halıcılar;Burdur;Halıcılar, Burdur;37.707;30.401;1385.0;;False
564;Karamanlı;Burdur;Karamanlı, Burdur;37.373;29.82;6048.0;;False
565;Karapınar;Burdur;Karapınar, Burdur;37.358;30.533;829.0;;False
566;Kayaaltı;Burdur;Kayaaltı, Burdur;37.622;30.354;924.0;;False
567;Kayış;Burdur;Kayış, Burdur;37.544;30.348;1128.0;;False
568;Kemer;Burdur;Kemer, Burdur;37.353;30.063;1416.0;;False
569;Kestel;Burdur;Kestel, Burdur;37.422;30.405;751.0;;False
570;Kızılkaya;Burdur;Kızılkaya, Burdur;37.303;30.446;2898.0;;False
571;Kızılyaka;Burdur;Kızılyaka, Burdur;36.987;29.53;835.0;;False
572;Kocaaliler;Burdur;Kocaaliler, Burdur;37.317;30.737;1905.0;;False
573;Kozağacı;Burdur;Kozağacı, Burdur;37.065;29.675;1118.0;;False
574;Kozluca;Burdur;Kozluca, Burdur;37.494;30.133;980.0;;False
575;Kuşbaba;Burdur;Kuşbaba, Burdur;37.453;30.432;773.0;;False
576;Mamak;Burdur;Mamak, Burdur;37.569;30.575;949.0;Çanaklı;False
577;Salda;Burdur;Salda, Burdur;37.531;29.629;1073.0;;False
578;Söğüt;Burdur;Söğüt, Burdur;37.033;29.817;3121.0;;False
579;Susuz;Burdur;Susuz, Burdur;37.377;30.54;892.0;;False
580;Taşkapı;Burdur;Taşkapı, Burdur;37.642;30.418;773.0;;False
581;Tefenni;Burdur;Tefenni, Burdur;37.313;29.776;7050.0;;False
582;Yeşilbaşköy;Burdur;Yeşilbaşköy, Burdur;37.651;30.496;1318.0;;False
583;Yeşildere;Burdur;Yeşildere, Burdur;37.028;29.387;860.0;;False
584;Yeşilova;Burdur;Yeşilova, Burdur;37.508;29.753;5408.0;;False
585;Yusufça;Burdur;Yusufça, Burdur;37.198;29.529;2326.0;;False
586;Adatepe;Çanakkale;Adatepe, Çanakkale;40.394;26.792;1095.0;;False
587;Ağaköy;Çanakkale;Ağaköy, Çanakkale;40.268;27.149;2058.0;;False
588;Akçakoyun;Çanakkale;Akçakoyun, Çanakkale;39.815;27.161;895.0;;False
589;Ayvacık;Çanakkale;Ayvacık, Çanakkale;39.6;26.406;10284.0;;False
590;Balıklıçeşme;Çanakkale;Balıklıçeşme, Çanakkale;40.309;27.082;1142.0;;False
591;Bayramiç;Çanakkale;Bayramiç, Çanakkale;39.81;26.607;15892.0;;False
592;Biga;Çanakkale;Biga, Çanakkale;40.226;27.242;58505.0;Çavuşköy, Yenice;False
593;Bolayır;Çanakkale;Bolayır, Çanakkale;40.515;26.759;1000.0;;False
594;Bozcaada;Çanakkale;Bozcaada, Çanakkale;39.822;26.03;3120.0;;False
595;Çal;Çanakkale;Çal, Çanakkale;39.978;27.157;779.0;;False
596;Çan;Çanakkale;Çan, Çanakkale;40.03;27.048;31156.0;;False
597;Çanakkale;Çanakkale;Çanakkale, Çanakkale;40.149;26.405;143675.0;;True
598;Çardak;Çanakkale;Çardak, Çanakkale;40.374;26.716;3866.0;;False
599;Çınarlı;Çanakkale;Çınarlı, Çanakkale;40.052;26.388;2032.0;;False
600;Eceabat;Çanakkale;Eceabat, Çanakkale;40.185;26.356;5665.0;;False
601;Erenköy;Çanakkale;Erenköy, Çanakkale;40.015;26.333;1654.0;İntepe;False
602;Etili;Çanakkale;Etili, Çanakkale;39.985;26.897;1297.0;;False
603;Evciler;Çanakkale;Evciler, Çanakkale;39.777;26.774;1331.0;;False
604;Evreşe;Çanakkale;Evreşe, Çanakkale;40.665;26.879;2073.0;;False
605;Ezine;Çanakkale;Ezine, Çanakkale;39.787;26.335;14907.0;;False
606;Gelibolu;Çanakkale;Gelibolu, Çanakkale;40.409;26.672;31507.0;;False
607;Geyikli;Çanakkale;Geyikli, Çanakkale;39.805;26.204;3782.0;;False
608;Gökçeada;Çanakkale;Gökçeada, Çanakkale;40.193;25.895;7479.0;;False
609;Gülpınar;Çanakkale;Gülpınar, Çanakkale;39.53;26.116;1232.0;;False
610;Gümüşçay;Çanakkale;Gümüşçay, Çanakkale;40.283;27.281;1977.0;;False
611;Güzelyalı;Çanakkale;Güzelyalı, Çanakkale;40.047;26.349;1808.0;;False
612;Işıklar;Çanakkale;Işıklar, Çanakkale;40.149;26.497;1545.0;;False
613;Kalafat;Çanakkale;Kalafat, Çanakkale;40.226;27.28;1153.0;;False
614;Kalkım;Çanakkale;Kalkım, Çanakkale;39.811;27.21;2430.0;;False
615;Karabiga;Çanakkale;Karabiga, Çanakkale;40.404;27.301;2964.0;;False
616;Karacaören;Çanakkale;Karacaören, Çanakkale;40.171;26.45;1689.0;;False
617;Kavakköy;Çanakkale;Kavakköy, Çanakkale;40.604;26.883;1946.0;;False
618;Kepez;Çanakkale;Kepez, Çanakkale;40.096;26.393;35390.0;;False
619;Kocayayla;Çanakkale;Kocayayla, Çanakkale;40.09;26.988;945.0;;False
620;Kozçeşme;Çanakkale;Kozçeşme, Çanakkale;40.266;27.031;776.0;;False
621;Küçükkuyu;Çanakkale;Küçükkuyu, Çanakkale;39.547;26.603;10578.0;;False
622;Kumkale;Çanakkale;Kumkale, Çanakkale;39.98;26.234;970.0;;False
623;Lapseki;Çanakkale;Lapseki, Çanakkale;40.345;26.688;15593.0;;False
624;Mahmudiye;Çanakkale;Mahmudiye, Çanakkale;39.873;26.239;1234.0;;False
625;Örtülüce;Çanakkale;Örtülüce, Çanakkale;40.381;27.205;1193.0;;False
626;Pazarköy;Çanakkale;Pazarköy, Çanakkale;39.854;27.402;1334.0;;False
627;Pınarbaşı;Çanakkale;Pınarbaşı, Çanakkale;39.886;26.268;860.0;;False
628;Sarısöğüt;Çanakkale;Sarısöğüt, Çanakkale;39.736;26.386;1073.0;;False
629;Terzialan;Çanakkale;Terzialan, Çanakkale;39.963;27.022;1773.0;;False
630;Türkmenli;Çanakkale;Türkmenli, Çanakkale;39.765;26.497;860.0;;False
631;Umurbey;Çanakkale;Umurbey, Çanakkale;40.235;26.608;2354.0;;False
632;Yenibademli;Çanakkale;Yenibademli, Çanakkale;40.22;25.895;931.0;;False
633;Yenice;Çanakkale;Yenice, Çanakkale;39.93;27.259;8243.0;;False
634;Yeniçiftlik;Çanakkale;Yeniçiftlik, Çanakkale;40.301;27.183;1038.0;;False
635;Yolindi;Çanakkale;Yolindi, Çanakkale;40.144;27.37;784.0;;False
636;Atkaracalar;Çankırı;Atkaracalar, Çankırı;40.818;33.077;2007.0;;False
637;Çankırı;Çankırı;Çankırı, Çankırı;40.596;33.621;91383.0;;True
638;Çardaklı;Çankırı;Çardaklı, Çankırı;40.806;33.128;1452.0;;False
639;Çerkeş;Çankırı;Çerkeş, Çankırı;40.81;32.891;9427.0;;False
640;Dodurga;Çankırı;Dodurga, Çankırı;40.601;32.988;2019.0;;False
641;Eldivan;Çankırı;Eldivan, Çankırı;40.53;33.503;3456.0;;False
642;Gümerdiğin;Çankırı;Gümerdiğin, Çankırı;40.442;33.258;1095.0;;False
643;Ilgaz;Çankırı;Ilgaz, Çankırı;40.926;33.628;7796.0;;False
644;Kalfat;Çankırı;Kalfat, Çankırı;40.668;33.103;1424.0;;False
645;Kızılırmak;Çankırı;Kızılırmak, Çankırı;40.348;33.988;2384.0;;False
646;Korgun;Çankırı;Korgun, Çankırı;40.737;33.519;2370.0;;False
647;Kurşunlu;Çankırı;Kurşunlu, Çankırı;40.84;33.261;5090.0;;False
648;Orta;Çankırı;Orta, Çankırı;40.626;33.11;3119.0;;False
649;Şabanözü;Çankırı;Şabanözü, Çankırı;40.479;33.282;7185.0;;False
650;Saçak;Çankırı;Saçak, Çankırı;40.781;33.015;1296.0;;False
651;Ünür;Çankırı;Ünür, Çankırı;40.588;34.004;785.0;;False
652;Yapraklı;Çankırı;Yapraklı, Çankırı;40.759;33.779;1797.0;;False
653;Yaylakent;Çankırı;Yaylakent, Çankırı;40.591;33.097;2579.0;;False
654;Yukarıöz;Çankırı;Yukarıöz, Çankırı;40.808;33.83;1065.0;;False
655;Ahacık;Çorum;Ahacık, Çorum;40.804;34.127;995.0;;False
656;Alaca;Çorum;Alaca, Çorum;40.169;34.842;19510.0;;False
657;Arifegazili;Çorum;Arifegazili, Çorum;40.223;34.534;1134.0;;False
658;Aşağıfındıklı;Çorum;Aşağıfındıklı, Çorum;40.269;34.416;867.0;;False
659;Aştavul;Çorum;Aştavul, Çorum;40.295;35.29;1952.0;Aşdağul;False
660;Bayat;Çorum;Bayat, Çorum;40.646;34.262;5613.0;;False
661;Boğazkale;Çorum;Boğazkale, Çorum;40.026;34.616;1203.0;;False
662;Çiftlikköy;Çorum;Çiftlikköy, Çorum;40.153;34.277;2216.0;Çiftlik;False
663;Çorum;Çorum;Çorum, Çorum;40.55;34.954;269594.0;;True
664;Danişment;Çorum;Danişment, Çorum;41.029;34.927;753.0;;False
665;Dodurga;Çorum;Dodurga, Çorum;40.856;34.808;2409.0;;False
666;Düvenci;Çorum;Düvenci, Çorum;40.66;35.165;1623.0;;False
667;Gökdere;Çorum;Gökdere, Çorum;41.048;35.031;971.0;;False
668;İskilip;Çorum;İskilip, Çorum;40.732;34.473;17612.0;;False
669;Karahacip;Çorum;Karahacip, Çorum;40.259;35.17;820.0;;False
670;Kargı;Çorum;Kargı, Çorum;41.135;34.488;5537.0;;False
671;Laçin;Çorum;Laçin, Çorum;40.77;34.896;1291.0;;False
672;Mecitözü;Çorum;Mecitözü, Çorum;40.521;35.296;4036.0;;False
673;Öbektaş;Çorum;Öbektaş, Çorum;41.038;34.963;1302.0;;False
674;Oğuzlar;Çorum;Oğuzlar, Çorum;40.754;34.704;2748.0;;False
675;Ortaköy;Çorum;Ortaköy, Çorum;40.273;35.246;2262.0;;False
676;Osmancık;Çorum;Osmancık, Çorum;40.971;34.802;30537.0;;False
677;Sungurlu;Çorum;Sungurlu, Çorum;40.162;34.376;30275.0;;False
678;Uğurludağ;Çorum;Uğurludağ, Çorum;40.446;34.455;2630.0;;False
679;Yekbas;Çorum;Yekbas, Çorum;40.055;34.613;834.0;Evren;False
680;Akçakoca;Düzce;Akçakoca, Düzce;41.088;31.125;27878.0;;False
681;Aksaklar;Düzce;Aksaklar, Düzce;40.986;31.475;804.0;;False
682;Aydınpınar;Düzce;Aydınpınar, Düzce;40.76;31.109;2712.0;;False
683;Bahçe;Düzce;Bahçe, Düzce;37.204;36.175;788.0;Bahçeköy;False
684;Ballıca;Düzce;Ballıca, Düzce;40.781;31.099;919.0;;False
685;Beyköy;Düzce;Beyköy, Düzce;40.776;31.172;5125.0;;False
686;Boğaziçi;Düzce;Boğaziçi, Düzce;40.943;31.164;2825.0;;False
687;Çiftlik;Düzce;Çiftlik, Düzce;40.901;31.224;792.0;Çiftlikköy;False
688;Çilimli;Düzce;Çilimli, Düzce;40.895;31.048;9936.0;;False
689;Cumayeri;Düzce;Cumayeri, Düzce;40.874;30.95;10908.0;;False
690;Darıyerihasanbey;Düzce;Darıyerihasanbey, Düzce;40.775;31.347;1833.0;;False
691;Darıyerimengencik;Düzce;Darıyerimengencik, Düzce;40.78;31.247;832.0;;False
692;Değirmenbaşı;Düzce;Değirmenbaşı, Düzce;40.78;31.183;806.0;;False
693;Doğanlı;Düzce;Doğanlı, Düzce;40.805;31.241;2102.0;;False
694;Düz;Düzce;Düz, Düzce;40.926;31.154;834.0;Düzköy;False
695;Düzce;Düzce;Düzce, Düzce;40.839;31.164;194097.0;Konuralp, Soğukpınar;False
696;Gölormanı;Düzce;Gölormanı, Düzce;40.756;31.082;1977.0;;False
697;Gölyaka;Düzce;Gölyaka, Düzce;40.781;30.975;10516.0;;False
698;Gümüşova;Düzce;Gümüşova, Düzce;40.847;30.94;9408.0;;False
699;Gümüşpınar;Düzce;Gümüşpınar, Düzce;40.821;31.223;892.0;;False
700;Günbaşı;Düzce;Günbaşı, Düzce;40.84;31.252;947.0;;False
701;Hacıyakup;Düzce;Hacıyakup, Düzce;40.761;31.013;1566.0;;False
702;İhsaniye;Düzce;İhsaniye, Düzce;40.846;31.078;826.0;;False
703;Kabalak;Düzce;Kabalak, Düzce;40.962;31.178;970.0;;False
704;Kaynaşlı;Düzce;Kaynaşlı, Düzce;40.776;31.305;10176.0;;False
705;Kirazlı;Düzce;Kirazlı, Düzce;40.809;31.209;769.0;;False
706;Kırık;Düzce;Kırık, Düzce;40.914;31.385;773.0;;False
707;Muncurlu;Düzce;Muncurlu, Düzce;40.817;31.244;1387.0;;False
708;Musababa;Düzce;Musababa, Düzce;40.831;31.232;779.0;;False
709;Otluoğlu;Düzce;Otluoğlu, Düzce;40.822;31.132;1975.0;;False
710;Pırpır;Düzce;Pırpır, Düzce;40.866;31.026;1384.0;;False
711;Saçmalıpınar;Düzce;Saçmalıpınar, Düzce;40.735;30.939;971.0;;False
712;Sarıçökek;Düzce;Sarıçökek, Düzce;40.785;31.318;827.0;;False
713;Şaziye;Düzce;Şaziye, Düzce;40.841;31.041;796.0;;False
714;Selamlar;Düzce;Selamlar, Düzce;40.858;30.954;781.0;;False
715;Üçköprü;Düzce;Üçköprü, Düzce;40.792;31.257;2296.0;;False
716;Üçyol;Düzce;Üçyol, Düzce;40.833;31.048;900.0;;False
717;Yeni Taşköprü;Düzce;Yeni Taşköprü, Düzce;40.831;31.098;2011.0;;False
718;Yenivakıf;Düzce;Yenivakıf, Düzce;40.9;31.089;1069.0;;False
719;Yığılca;Düzce;Yığılca, Düzce;40.961;31.442;3024.0;;False
720;Yörük;Düzce;Yörük, Düzce;40.9;31.191;2387.0;;False
721;Abalar;Edirne;Abalar, Edirne;41.546;26.742;1000.0;;False
722;Adasarhanlı;Edirne;Adasarhanlı, Edirne;41.083;26.358;809.0;;False
723;Aliçopehlivan;Edirne;Aliçopehlivan, Edirne;40.843;26.441;1782.0;;False
724;Beğendik;Edirne;Beğendik, Edirne;40.931;26.575;3206.0;;False
725;Edirne;Edirne;Edirne, Edirne;41.678;26.555;180002.0;;True
726;Enez;Edirne;Enez, Edirne;40.725;26.085;4301.0;;False
727;Esetçe;Edirne;Esetçe, Edirne;40.87;26.444;2155.0;;False
728;Hacı;Edirne;Hacı, Edirne;40.98;26.549;1034.0;;False
729;Harmanlı;Edirne;Harmanlı, Edirne;41.098;26.746;891.0;;False
730;Havsa;Edirne;Havsa, Edirne;41.55;26.821;8702.0;;False
731;İbriktepe;Edirne;İbriktepe, Edirne;41.011;26.503;1127.0;;False
732;İpsala;Edirne;İpsala, Edirne;40.93;26.395;8546.0;;False
733;İzzetiye;Edirne;İzzetiye, Edirne;40.813;26.646;1135.0;;False
734;Kemal;Edirne;Kemal, Edirne;41.736;26.395;824.0;Kemalköy;False
735;Keşan;Edirne;Keşan, Edirne;40.855;26.63;62399.0;;False
736;Kırcasalih;Edirne;Kırcasalih, Edirne;41.389;26.797;2503.0;;False
737;Kocahıdır;Edirne;Kocahıdır, Edirne;40.81;26.405;985.0;;False
738;Koyuntepe;Edirne;Koyuntepe, Edirne;40.769;26.345;981.0;;False
739;Kumdere;Edirne;Kumdere, Edirne;40.866;26.367;841.0;;False
740;Küplü;Edirne;Küplü, Edirne;41.107;26.352;2153.0;;False
741;Kurtbey;Edirne;Kurtbey, Edirne;41.146;26.579;1128.0;;False
742;Lalapaşa;Edirne;Lalapaşa, Edirne;41.84;26.736;1560.0;;False
743;Mecidiye;Edirne;Mecidiye, Edirne;40.641;26.537;840.0;;False
744;Meriç;Edirne;Meriç, Edirne;41.221;26.332;2820.0;;False
745;Oğulpaşa;Edirne;Oğulpaşa, Edirne;41.604;26.753;788.0;;False
746;Osmanlı;Edirne;Osmanlı, Edirne;41.589;26.836;924.0;;False
747;Paşaköy;Edirne;Paşaköy, Edirne;40.852;26.319;925.0;;False
748;Paşayiğit;Edirne;Paşayiğit, Edirne;40.959;26.637;1308.0;;False
749;Siğilli;Edirne;Siğilli, Edirne;40.815;26.596;814.0;;False
750;Subaşı;Edirne;Subaşı, Edirne;41.145;26.375;1865.0;;False
751;Süloğlu;Edirne;Süloğlu, Edirne;41.809;26.924;3211.0;;False
752;Sultan;Edirne;Sultan, Edirne;41.025;26.453;1155.0;;False
753;Sultaniçe;Edirne;Sultaniçe, Edirne;40.628;26.159;985.0;;False
754;Tayakadın;Edirne;Tayakadın, Edirne;41.576;26.66;1476.0;;False
755;Türkmen;Edirne;Türkmen, Edirne;40.809;26.504;981.0;;False
756;Uzunköprü;Edirne;Uzunköprü, Edirne;41.269;26.688;39577.0;;False
757;Yenikarpuzlu;Edirne;Yenikarpuzlu, Edirne;40.833;26.296;2984.0;;False
758;Yenimuhacir;Edirne;Yenimuhacir, Edirne;40.858;26.696;1976.0;;False
759;Ağın;Elâzığ;Ağın, Elâzığ;38.942;38.716;1625.0;;False
760;Akçakiraz;Elâzığ;Akçakiraz, Elâzığ;38.618;39.27;6986.0;;False
761;Alacakaya;Elâzığ;Alacakaya, Elâzığ;38.453;39.851;2437.0;;False
762;Arıcak;Elâzığ;Arıcak, Elâzığ;38.565;40.135;3113.0;;False
763;Bahçekapı;Elâzığ;Bahçekapı, Elâzığ;38.566;39.268;1141.0;;False
764;Baltaşı;Elâzığ;Baltaşı, Elâzığ;38.588;39.788;957.0;;False
765;Baskil;Elâzığ;Baskil, Elâzığ;38.57;38.823;4705.0;;False
766;Beyhan;Elâzığ;Beyhan, Elâzığ;38.733;40.133;1625.0;;False
767;Bükardı;Elâzığ;Bükardı, Elâzığ;38.469;40.173;2080.0;;False
768;Çakırkaş;Elâzığ;Çakırkaş, Elâzığ;38.767;39.971;1153.0;;False
769;Ekinözü;Elâzığ;Ekinözü, Elâzığ;38.783;39.873;855.0;;False
770;Elâzığ;Elâzığ;Elâzığ, Elâzığ;38.675;39.222;387072.0;;True
771;Erimli;Elâzığ;Erimli, Elâzığ;38.524;40.018;2438.0;;False
772;Gezin;Elâzığ;Gezin, Elâzığ;38.513;39.551;993.0;;False
773;Güneyçayırı;Elâzığ;Güneyçayırı, Elâzığ;38.67;39.289;6611.0;;False
774;Hankendi;Elâzığ;Hankendi, Elâzığ;38.573;39.06;848.0;;False
775;Kapıaçmaz;Elâzığ;Kapıaçmaz, Elâzığ;38.708;39.882;755.0;;False
776;Karakoçan;Elâzığ;Karakoçan, Elâzığ;39.036;40.104;15200.0;;False
777;Keban;Elâzığ;Keban, Elâzığ;38.793;38.744;3855.0;;False
778;Kovancılar;Elâzığ;Kovancılar, Elâzığ;38.718;39.869;24764.0;;False
779;Küplüce;Elâzığ;Küplüce, Elâzığ;38.537;40.175;792.0;;False
780;Kuyulu;Elâzığ;Kuyulu, Elâzığ;38.566;39.247;1078.0;;False
781;Maden;Elâzığ;Maden, Elâzığ;38.39;39.669;3329.0;;False
782;Mollakendi;Elâzığ;Mollakendi, Elâzığ;38.582;39.338;2297.0;;False
783;Palu;Elâzığ;Palu, Elâzığ;38.704;39.951;9705.0;;False
784;Şahinkaya;Elâzığ;Şahinkaya, Elâzığ;38.693;39.144;1995.0;;False
785;Sarıcan;Elâzığ;Sarıcan, Elâzığ;38.903;40.134;2113.0;;False
786;Sivrice;Elâzığ;Sivrice, Elâzığ;38.447;39.312;3341.0;;False
787;Üçocak;Elâzığ;Üçocak, Elâzığ;38.477;40.245;2401.0;;False
788;Yarımca;Elâzığ;Yarımca, Elâzığ;38.658;39.762;986.0;;False
789;Yazıkonak;Elâzığ;Yazıkonak, Elâzığ;38.609;39.303;9723.0;;False
790;Yemişlik;Elâzığ;Yemişlik, Elâzığ;38.613;39.203;983.0;;False
791;Yurtbaşı;Elâzığ;Yurtbaşı, Elâzığ;38.634;39.344;7612.0;;False
792;Akyazı;Erzincan;Akyazı, Erzincan;39.716;39.569;1769.0;;False
793;Altınbaşak;Erzincan;Altınbaşak, Erzincan;39.664;39.678;2016.0;;False
794;Bayırbağ;Erzincan;Bayırbağ, Erzincan;39.697;39.719;1406.0;;False
795;Çadırkaya;Erzincan;Çadırkaya, Erzincan;39.843;40.223;1978.0;;False
796;Çağlayan;Erzincan;Çağlayan, Erzincan;39.591;39.696;1942.0;;False
797;Çayırlı;Erzincan;Çayırlı, Erzincan;39.806;40.037;4644.0;;False
798;Çukurkuyu;Erzincan;Çukurkuyu, Erzincan;39.775;39.427;3685.0;;False
799;Erzincan;Erzincan;Erzincan, Erzincan;39.751;39.491;135682.0;Demirkent, Geçit, Kavakyolu, Ulalar;False
800;Gümüştarla;Erzincan;Gümüştarla, Erzincan;39.757;39.426;1996.0;;False
801;İliç;Erzincan;İliç, Erzincan;39.457;38.563;4713.0;;False
802;Kargın;Erzincan;Kargın, Erzincan;39.652;40.182;2019.0;Altunkent;False
803;Kemah;Erzincan;Kemah, Erzincan;39.603;39.036;2929.0;;False
804;Kemaliye;Erzincan;Kemaliye, Erzincan;39.26;38.497;2536.0;;False
805;Mercan;Erzincan;Mercan, Erzincan;39.746;40.261;2049.0;;False
806;Mollaköy;Erzincan;Mollaköy, Erzincan;39.641;39.578;1487.0;;False
807;Otlukbeli;Erzincan;Otlukbeli, Erzincan;40.007;39.89;1956.0;;False
808;Refahiye;Erzincan;Refahiye, Erzincan;39.901;38.769;4225.0;;False
809;Tercan;Erzincan;Tercan, Erzincan;39.78;40.384;4699.0;;False
810;Üzümlü;Erzincan;Üzümlü, Erzincan;39.71;39.701;8524.0;;False
811;Yalnızbağ;Erzincan;Yalnızbağ, Erzincan;39.803;39.409;5269.0;;False
812;Yoğurtlu;Erzincan;Yoğurtlu, Erzincan;39.713;39.536;3488.0;;False
813;Alucra;Giresun;Alucra, Giresun;40.318;38.766;3945.0;;False
814;Aydındere;Giresun;Aydındere, Giresun;40.655;38.092;2189.0;;False
815;Barça;Giresun;Barça, Giresun;40.862;38.461;796.0;;False
816;Boztekke;Giresun;Boztekke, Giresun;40.891;38.301;914.0;;False
817;Bulancak;Giresun;Bulancak, Giresun;40.938;38.234;48627.0;;False
818;Burunucu;Giresun;Burunucu, Giresun;40.929;38.264;935.0;;False
819;Çamoluk;Giresun;Çamoluk, Giresun;40.129;38.749;2985.0;;False
820;Çanakçı;Giresun;Çanakçı, Giresun;40.913;39.007;1868.0;;False
821;Çatak;Giresun;Çatak, Giresun;40.831;38.95;753.0;;False
822;Çavuşlu;Giresun;Çavuşlu, Giresun;41.039;39.063;2142.0;;False
823;Dereli;Giresun;Dereli, Giresun;40.739;38.45;5879.0;;False
824;Doğankent;Giresun;Doğankent, Giresun;40.807;38.922;4545.0;;False
825;Duroğlu;Giresun;Duroğlu, Giresun;40.839;38.471;3032.0;;False
826;Ericek;Giresun;Ericek, Giresun;40.72;38.733;810.0;;False
827;Espiye;Giresun;Espiye, Giresun;40.947;38.706;26671.0;;False
828;Eynesil;Giresun;Eynesil, Giresun;41.061;39.144;7083.0;;False
829;Giresun;Giresun;Giresun, Giresun;40.917;38.386;125682.0;;True
830;Görele;Giresun;Görele, Giresun;41.033;39.002;18725.0;;False
831;Güce;Giresun;Güce, Giresun;40.892;38.806;3978.0;;False
832;Güneyköy;Giresun;Güneyköy, Giresun;40.892;38.466;949.0;;False
833;Karabulduk;Giresun;Karabulduk, Giresun;40.826;38.557;797.0;;False
834;Keşap;Giresun;Keşap, Giresun;40.917;38.509;9227.0;;False
835;Kovanlık;Giresun;Kovanlık, Giresun;40.753;38.127;2498.0;Ahurlu;False
836;Ören;Giresun;Ören, Giresun;41.033;39.148;2138.0;;False
837;Pazarsuyu;Giresun;Pazarsuyu, Giresun;40.929;38.181;1085.0;;False
838;Piraziz;Giresun;Piraziz, Giresun;40.923;38.125;8400.0;;False
839;Şebinkarahisar;Giresun;Şebinkarahisar, Giresun;40.29;38.424;10695.0;;False
840;Sınırköy;Giresun;Sınırköy, Giresun;40.686;38.612;886.0;;False
841;Soğukpınar;Giresun;Soğukpınar, Giresun;40.819;38.738;2645.0;;False
842;Tirebolu;Giresun;Tirebolu, Giresun;41.005;38.814;20671.0;;False
843;Üçtepe;Giresun;Üçtepe, Giresun;40.721;38.634;2193.0;;False
844;Yağlıdere;Giresun;Yağlıdere, Giresun;40.863;38.627;7042.0;;False
845;Yalıköy;Giresun;Yalıköy, Giresun;40.925;38.296;904.0;;False
846;Yavuzkemal;Giresun;Yavuzkemal, Giresun;40.7;38.34;2361.0;;False
847;Akçakale;Gümüşhane;Akçakale, Gümüşhane;40.432;39.525;1109.0;;False
848;Arzularkabaköy;Gümüşhane;Arzularkabaköy, Gümüşhane;40.419;39.662;5280.0;;False
849;Deredolu;Gümüşhane;Deredolu, Gümüşhane;40.039;39.509;2305.0;;False
850;Gümüşgöze;Gümüşhane;Gümüşgöze, Gümüşhane;40.188;39.37;2935.0;;False
851;Gümüşhane;Gümüşhane;Gümüşhane, Gümüşhane;40.46;39.48;38105.0;;True
852;Kelkit;Gümüşhane;Kelkit, Gümüşhane;40.128;39.438;21316.0;;False
853;Köse;Gümüşhane;Köse, Gümüşhane;40.212;39.651;5283.0;;False
854;Kürtün;Gümüşhane;Kürtün, Gümüşhane;40.691;39.106;4329.0;;False
855;Öbektaş;Gümüşhane;Öbektaş, Gümüşhane;40.142;39.61;2670.0;;False
856;Özkürtün;Gümüşhane;Özkürtün, Gümüşhane;40.67;39.136;2275.0;;False
857;Şiran;Gümüşhane;Şiran, Gümüşhane;40.19;39.127;11243.0;;False
858;Söğütlü;Gümüşhane;Söğütlü, Gümüşhane;40.083;39.255;2207.0;;False
859;Tekke;Gümüşhane;Tekke, Gümüşhane;40.946;40.521;2331.0;;False
860;Torul;Gümüşhane;Torul, Gümüşhane;40.556;39.288;5794.0;;False
861;Üçtaş;Gümüşhane;Üçtaş, Gümüşhane;40.742;38.959;892.0;;False
862;Ünlüpınar;Gümüşhane;Ünlüpınar, Gümüşhane;40.207;39.435;2542.0;;False
863;Yeşilbük;Gümüşhane;Yeşilbük, Gümüşhane;40.217;38.987;1966.0;;False
864;Adaklı;Hakkâri;Adaklı, Hakkâri;37.527;44.169;1105.0;;False
865;Akalın;Hakkâri;Akalın, Hakkâri;37.565;44.243;1610.0;;False
866;Akçalı;Hakkâri;Akçalı, Hakkâri;37.709;43.99;765.0;;False
867;Akkaya;Hakkâri;Akkaya, Hakkâri;37.347;43.464;808.0;;False
868;Akpınar;Hakkâri;Akpınar, Hakkâri;37.711;44.429;1223.0;;False
869;Altınsu;Hakkâri;Altınsu, Hakkâri;37.322;44.552;4890.0;;False
870;Anadağ;Hakkâri;Anadağ, Hakkâri;37.016;44.247;4259.0;;False
871;Bağdaş;Hakkâri;Bağdaş, Hakkâri;37.703;44.205;1039.0;;False
872;Bağışlı;Hakkâri;Bağışlı, Hakkâri;37.721;44.043;1192.0;;False
873;Bağlar;Hakkâri;Bağlar, Hakkâri;37.292;44.522;784.0;;False
874;Boğazköy;Hakkâri;Boğazköy, Hakkâri;37.28;44.433;1049.0;;False
875;Bölük;Hakkâri;Bölük, Hakkâri;37.616;44.303;867.0;;False
876;Büyükçiftlik;Hakkâri;Büyükçiftlik, Hakkâri;37.586;44.076;3296.0;;False
877;Çalışkanlar;Hakkâri;Çalışkanlar, Hakkâri;37.264;44.625;1392.0;← Günyazı;False
878;Çatalca;Hakkâri;Çatalca, Hakkâri;37.394;44.575;993.0;;False
879;Çığlı;Hakkâri;Çığlı, Hakkâri;37.331;43.382;1916.0;;False
880;Çukurca;Hakkâri;Çukurca, Hakkâri;37.251;43.613;7485.0;;False
881;Dedeler;Hakkâri;Dedeler, Hakkâri;37.498;44.326;880.0;;False
882;Değerli;Hakkâri;Değerli, Hakkâri;37.56;44.396;1065.0;;False
883;Derecik;Hakkâri;Derecik, Hakkâri;37.074;44.317;11264.0;;False
884;Doğanlı;Hakkâri;Doğanlı, Hakkâri;37.481;44.3;1089.0;;False
885;Durankaya;Hakkâri;Durankaya, Hakkâri;37.554;43.612;2715.0;;False
886;Esendere;Hakkâri;Esendere, Hakkâri;37.714;44.6;2786.0;;False
887;Geçitli;Hakkâri;Geçitli, Hakkâri;37.59;43.566;1561.0;;False
888;Gelişen;Hakkâri;Gelişen, Hakkâri;37.118;44.425;4122.0;;False
889;Güçlü;Hakkâri;Güçlü, Hakkâri;37.567;44.322;846.0;;False
890;Güllüce;Hakkâri;Güllüce, Hakkâri;37.597;44.288;1140.0;;False
891;Gündeş;Hakkâri;Gündeş, Hakkâri;37.307;43.454;2324.0;;False
892;Günyazı;Hakkâri;Günyazı, Hakkâri;37.295;44.6;1465.0;;False
893;Hakkâri;Hakkâri;Hakkâri, Hakkâri;37.576;43.739;60098.0;;True
894;İnanlı;Hakkâri;İnanlı, Hakkâri;37.586;44.237;2800.0;;False
895;Kadıköy;Hakkâri;Kadıköy, Hakkâri;37.548;44.138;1144.0;;False
896;Kamışlı;Hakkâri;Kamışlı, Hakkâri;37.459;44.31;1107.0;;False
897;Karlı;Hakkâri;Karlı, Hakkâri;37.49;44.243;1064.0;;False
898;Kayalar;Hakkâri;Kayalar, Hakkâri;37.323;44.671;1872.0;;False
899;Kırıkdağ;Hakkâri;Kırıkdağ, Hakkâri;37.559;43.949;1254.0;;False
900;Kısıklı;Hakkâri;Kısıklı, Hakkâri;37.688;44.375;1221.0;;False
901;Konur;Hakkâri;Konur, Hakkâri;37.262;44.34;1199.0;;False
902;Korgan;Hakkâri;Korgan, Hakkâri;37.402;44.492;4225.0;;False
903;Onbaşılar;Hakkâri;Onbaşılar, Hakkâri;37.539;44.544;1047.0;;False
904;Ortaç;Hakkâri;Ortaç, Hakkâri;37.678;44.047;930.0;;False
905;Ortaklar;Hakkâri;Ortaklar, Hakkâri;37.173;44.409;1569.0;;False
906;Otluca;Hakkâri;Otluca, Hakkâri;37.606;43.691;784.0;;False
907;Şemdinli;Hakkâri;Şemdinli, Hakkâri;37.304;44.577;16079.0;;False
908;Tekeli;Hakkâri;Tekeli, Hakkâri;37.24;44.658;2193.0;;False
909;Tütünlü;Hakkâri;Tütünlü, Hakkâri;37.217;44.507;2126.0;;False
910;Uğuraçan;Hakkâri;Uğuraçan, Hakkâri;37.255;44.361;802.0;;False
911;Uslu;Hakkâri;Uslu, Hakkâri;37.111;44.381;2247.0;;False
912;Üzümlü;Hakkâri;Üzümlü, Hakkâri;37.254;43.528;1391.0;;False
913;Vezirli;Hakkâri;Vezirli, Hakkâri;37.527;44.249;1414.0;;False
914;Yaylapınar;Hakkâri;Yaylapınar, Hakkâri;37.239;44.446;931.0;;False
915;Yüksekova;Hakkâri;Yüksekova, Hakkâri;37.571;44.283;72745.0;;False
916;Aralık;Iğdır;Aralık, Iğdır;39.875;44.517;5809.0;;False
917;Aşağıaratan;Iğdır;Aşağıaratan, Iğdır;39.832;44.557;775.0;;False
918;Aşağıçamurlu;Iğdır;Aşağıçamurlu, Iğdır;39.927;44.434;763.0;;False
919;Aşağıerhacı;Iğdır;Aşağıerhacı, Iğdır;39.884;44.09;4226.0;;False
920;Bayraktutan;Iğdır;Bayraktutan, Iğdır;40.005;43.91;759.0;;False
921;Bulakbaşı;Iğdır;Bulakbaşı, Iğdır;39.938;44.256;1522.0;;False
922;Enginalan;Iğdır;Enginalan, Iğdır;39.961;44.032;2482.0;;False
923;Evci;Iğdır;Evci, Iğdır;39.877;34.723;1455.0;;False
924;Gödekli;Iğdır;Gödekli, Iğdır;39.823;44.593;2448.0;;False
925;Güllüce;Iğdır;Güllüce, Iğdır;39.894;43.66;980.0;;False
926;Gülpınar;Iğdır;Gülpınar, Iğdır;39.785;44.011;923.0;;False
927;Halfeli;Iğdır;Halfeli, Iğdır;39.892;43.988;8271.0;;False
928;Hasanhan;Iğdır;Hasanhan, Iğdır;39.956;44.341;2254.0;;False
929;Hoşhaber;Iğdır;Hoşhaber, Iğdır;39.906;43.967;2698.0;;False
930;Iğdır;Iğdır;Iğdır, Iğdır;39.922;44.046;101700.0;;True
931;Karakoyunlu;Iğdır;Karakoyunlu, Iğdır;39.972;44.173;2728.0;;False
932;Karakuyu;Iğdır;Karakuyu, Iğdır;39.866;44.032;2830.0;;False
933;Kerimbeyli;Iğdır;Kerimbeyli, Iğdır;39.998;44.387;1393.0;;False
934;Küllük;Iğdır;Küllük, Iğdır;39.987;43.917;2495.0;;False
935;Melekli;Iğdır;Melekli, Iğdır;39.941;44.095;3594.0;;False
936;Mürşitali;Iğdır;Mürşitali, Iğdır;40.025;44.133;1620.0;;False
937;Panik;Iğdır;Panik, Iğdır;39.983;44.05;2671.0;Özdemir;False
938;Suveren;Iğdır;Suveren, Iğdır;39.805;44.063;1115.0;;False
939;Tacirli;Iğdır;Tacirli, Iğdır;39.989;44.11;936.0;;False
940;Taşburun;Iğdır;Taşburun, Iğdır;39.978;44.249;927.0;;False
941;Tuzluca;Iğdır;Tuzluca, Iğdır;40.049;43.661;9619.0;;False
942;Yaycı;Iğdır;Yaycı, Iğdır;39.95;43.97;794.0;;False
943;Yukarıçamurlu;Iğdır;Yukarıçamurlu, Iğdır;39.955;44.391;1405.0;;False
944;Yukarıtopraklı;Iğdır;Yukarıtopraklı, Iğdır;39.907;44.436;943.0;;False
945;Yüzbaşılar;Iğdır;Yüzbaşılar, Iğdır;39.998;44.051;2259.0;;False
946;Aksu;Isparta;Aksu, Isparta;36.951;30.848;1898.0;;False
947;Aliköy;Isparta;Aliköy, Isparta;37.811;30.624;1259.0;;False
948;Atabey;Isparta;Atabey, Isparta;37.952;30.643;4651.0;;False
949;Bağıllı;Isparta;Bağıllı, Isparta;38.137;31.039;1266.0;;False
950;Bağkonak;Isparta;Bağkonak, Isparta;38.216;31.272;1062.0;;False
951;Balcı;Isparta;Balcı, Isparta;38.116;31.105;932.0;;False
952;Barla;Isparta;Barla, Isparta;38.018;30.786;1002.0;;False
953;Büyükgökçeli;Isparta;Büyükgökçeli, Isparta;37.873;30.733;1206.0;;False
954;Büyükhacılar;Isparta;Büyükhacılar, Isparta;37.791;30.641;1062.0;;False
955;Büyükkabaca;Isparta;Büyükkabaca, Isparta;38.171;30.643;3546.0;;False
956;Çarıksaraylar;Isparta;Çarıksaraylar, Isparta;38.118;31.414;2677.0;;False
957;Çetince;Isparta;Çetince, Isparta;38.186;31.213;1422.0;;False
958;Çiçekpınar;Isparta;Çiçekpınar, Isparta;38.066;31.32;1982.0;;False
959;Çukurköy;Isparta;Çukurköy, Isparta;37.661;30.809;817.0;;False
960;Dedeçam;Isparta;Dedeçam, Isparta;38.177;31.323;994.0;;False
961;Deregümü;Isparta;Deregümü, Isparta;37.787;30.51;2083.0;;False
962;Direkli;Isparta;Direkli, Isparta;37.722;30.618;920.0;;False
963;Eğirdir;Isparta;Eğirdir, Isparta;37.874;30.85;16759.0;;False
964;Gelendost;Isparta;Gelendost, Isparta;38.122;31.016;5279.0;;False
965;Gökçehöyük;Isparta;Gökçehöyük, Isparta;37.885;31.009;919.0;;False
966;Göksöğüt;Isparta;Göksöğüt, Isparta;38.137;31.28;984.0;;False
967;Gönen;Isparta;Gönen, Isparta;37.959;30.516;3177.0;;False
968;Güneykent;Isparta;Güneykent, Isparta;37.972;30.397;1267.0;;False
969;Hüyüklü;Isparta;Hüyüklü, Isparta;38.235;31.129;1654.0;;False
970;İslamköy;Isparta;İslamköy, Isparta;37.925;30.655;781.0;;False
971;Isparta;Isparta;Isparta, Isparta;37.764;30.555;247580.0;;True
972;Keçiborlu;Isparta;Keçiborlu, Isparta;37.948;30.305;7044.0;;False
973;Kesme;Isparta;Kesme, Isparta;37.466;31.232;877.0;;False
974;Kılıç;Isparta;Kılıç, Isparta;37.875;30.314;1614.0;;False
975;Körküler;Isparta;Körküler, Isparta;38.396;31.046;1099.0;;False
976;Koruyaka;Isparta;Koruyaka, Isparta;38.145;31.224;873.0;;False
977;Kozluçay;Isparta;Kozluçay, Isparta;38.201;31.295;1512.0;;False
978;Küçükhacılar;Isparta;Küçükhacılar, Isparta;37.81;30.636;1080.0;;False
979;Kuleönü;Isparta;Kuleönü, Isparta;37.874;30.619;2544.0;;False
980;Kumdanlı;Isparta;Kumdanlı, Isparta;38.325;30.978;1186.0;;False
981;Kuyucak;Isparta;Kuyucak, Isparta;38.232;31.232;771.0;;False
982;Madenli;Isparta;Madenli, Isparta;38.183;31.103;783.0;;False
983;Özbayat;Isparta;Özbayat, Isparta;38.26;31.224;881.0;;False
984;Salur;Isparta;Salur, Isparta;38.033;31.285;934.0;;False
985;Sarıidris;Isparta;Sarıidris, Isparta;37.945;31.01;2188.0;;False
986;Şarkikaraağaç;Isparta;Şarkikaraağaç, Isparta;38.081;31.367;10128.0;;False
987;Savköy;Isparta;Savköy, Isparta;37.765;30.646;3664.0;;False
988;Senir;Isparta;Senir, Isparta;37.818;30.3;2197.0;;False
989;Senirkent;Isparta;Senirkent, Isparta;38.107;30.55;4548.0;;False
990;Sücüllü;Isparta;Sücüllü, Isparta;38.349;31.154;1542.0;;False
991;Sütçüler;Isparta;Sütçüler, Isparta;37.489;30.994;2473.0;;False
992;Uluborlu;Isparta;Uluborlu, Isparta;38.079;30.457;5635.0;;False
993;Yaka;Isparta;Yaka, Isparta;38.101;31.042;1552.0;;False
994;Yakaören;Isparta;Yakaören, Isparta;37.781;30.483;1676.0;;False
995;Yalvaç;Isparta;Yalvaç, Isparta;38.297;31.179;22538.0;;False
996;Yenice;Isparta;Yenice, Isparta;38.142;30.949;870.0;;False
997;Yenişarbademli;Isparta;Yenişarbademli, Isparta;37.707;31.387;2411.0;;False
998;Yeşilköy;Isparta;Yeşilköy, Isparta;37.994;30.997;1205.0;;False
999;Yukarı Gökdere;Isparta;Yukarı Gökdere, Isparta;37.699;30.855;808.0;;False
1000;Yukarıkaşıkara;Isparta;Yukarıkaşıkara, Isparta;38.347;30.87;1116.0;;False
1008;Kahramanmaraş;Kahramanmaraş;Kahramanmaraş, Kahramanmaraş;37.583333;36.933333;1177436.0;Maraş,Karacasu,Kavlaklı;False
1012;Bostanbükü;Karabük;Bostanbükü, Karabük;41.215;32.686;6776.0;;False
1013;Cumayanı;Karabük;Cumayanı, Karabük;41.1;32.667;2931.0;;False
1014;Eflani;Karabük;Eflani, Karabük;41.424;32.957;2076.0;;False
1015;Eskipazar;Karabük;Eskipazar, Karabük;40.945;32.532;6689.0;;False
1016;Karabük;Karabük;Karabük, Karabük;41.198;32.625;125403.0;Kılavuzlar;False
1017;Karıt;Karabük;Karıt, Karabük;41.213;32.709;1236.0;;False
1018;Safranbolu;Karabük;Safranbolu, Karabük;41.25;32.684;52999.0;;False
1019;Tokatlı;Karabük;Tokatlı, Karabük;41.274;32.68;1876.0;;False
1020;Yazıköy;Karabük;Yazıköy, Karabük;41.238;32.741;919.0;;False
1021;Yenice;Karabük;Yenice, Karabük;41.2;32.329;9038.0;;False
1022;Yortan;Karabük;Yortan, Karabük;41.255;32.353;1689.0;;False
1023;Zopran;Karabük;Zopran, Karabük;41.126;32.635;2187.0;;False
1024;Akçaşehir;Karaman;Akçaşehir, Karaman;37.45;33.495;2172.0;;False
1025;Ardıçkaya;Karaman;Ardıçkaya, Karaman;36.553;32.753;955.0;;False
1026;Aşağıçağlar;Karaman;Aşağıçağlar, Karaman;36.721;32.795;922.0;;False
1027;Ayrancı;Karaman;Ayrancı, Karaman;37.36;33.689;2292.0;;False
1028;Başyayla;Karaman;Başyayla, Karaman;36.755;32.68;1895.0;;False
1029;Çakırbağ;Karaman;Çakırbağ, Karaman;37.192;33.14;1540.0;;False
1030;Civler;Karaman;Civler, Karaman;36.667;32.583;1249.0;;False
1031;Dere;Karaman;Dere, Karaman;37.128;33.272;1173.0;;False
1032;Dumlugöze;Karaman;Dumlugöze, Karaman;36.553;32.556;1449.0;;False
1033;Ermenek;Karaman;Ermenek, Karaman;36.64;32.892;11629.0;;False
1034;Gökçekent;Karaman;Gökçekent, Karaman;36.537;32.859;839.0;;False
1035;Göktepe;Karaman;Göktepe, Karaman;36.63;32.625;2051.0;;False
1036;Güneyyurt;Karaman;Güneyyurt, Karaman;36.68;32.807;4982.0;;False
1037;Karaman;Karaman;Karaman, Karaman;37.183;33.218;175390.0;;True
1038;Kazancı;Karaman;Kazancı, Karaman;36.498;32.863;2151.0;;False
1039;Kazımkarabekir;Karaman;Kazımkarabekir, Karaman;37.228;32.957;3456.0;;False
1040;Kılbasan;Karaman;Kılbasan, Karaman;37.324;33.186;1571.0;;False
1041;Sarıveliler;Karaman;Sarıveliler, Karaman;36.702;32.619;5274.0;Adiller;False
1042;Sudurağı;Karaman;Sudurağı, Karaman;37.289;33.368;2314.0;;False
1043;Süleymanhacı;Karaman;Süleymanhacı, Karaman;37.466;33.072;772.0;;False
1044;Yeşildere;Karaman;Yeşildere, Karaman;37.157;33.514;798.0;;False
1045;Yollarbaşı;Karaman;Yollarbaşı, Karaman;37.196;33.026;971.0;;False
1046;Ağdam;Kars;Ağdam, Kars;40.175;43.277;1351.0;;False
1047;Akören;Kars;Akören, Kars;40.161;43.005;958.0;;False
1048;Akyaka;Kars;Akyaka, Kars;40.74;43.625;2026.0;;False
1049;Alem;Kars;Alem, Kars;40.427;43.508;835.0;;False
1050;Armutlu;Kars;Armutlu, Kars;40.086;42.664;865.0;;False
1051;Arpaçay;Kars;Arpaçay, Kars;40.848;43.332;2344.0;;False
1052;Başköy;Kars;Başköy, Kars;40.082;42.609;1528.0;;False
1053;Büyük Oluklu;Kars;Büyük Oluklu, Kars;40.308;42.885;1220.0;;False
1054;Çamyazı;Kars;Çamyazı, Kars;40.223;42.395;1005.0;;False
1055;Çayarası;Kars;Çayarası, Kars;40.052;42.776;1583.0;;False
1056;Çengilli;Kars;Çengilli, Kars;40.124;42.915;1512.0;;False
1057;Çerme;Kars;Çerme, Kars;40.447;42.993;914.0;;False
1058;Cumhuriyet;Kars;Cumhuriyet, Kars;38.244;41.937;754.0;Yolaçan;False
1059;Dağpınar;Kars;Dağpınar, Kars;40.458;43.325;3094.0;;False
1060;Demirkent;Kars;Demirkent, Kars;40.714;43.639;989.0;;False
1061;Denizgölü;Kars;Denizgölü, Kars;40.09;42.918;835.0;;False
1062;Digor;Kars;Digor, Kars;40.376;43.413;2304.0;;False
1063;Doğruyol;Kars;Doğruyol, Kars;41.062;43.332;804.0;;False
1064;Eşmeçayır;Kars;Eşmeçayır, Kars;40.053;42.532;1043.0;;False
1065;Günindi;Kars;Günindi, Kars;40.205;43.258;1404.0;;False
1066;Halefoğlu;Kars;Halefoğlu, Kars;40.651;43.293;2374.0;;False
1067;İnkaya;Kars;İnkaya, Kars;40.195;42.367;991.0;;False
1068;Kağızman;Kars;Kağızman, Kars;40.141;43.122;21130.0;;False
1069;Kalebaşı;Kars;Kalebaşı, Kars;40.151;42.764;872.0;;False
1070;Karakuş;Kars;Karakuş, Kars;40.165;43.02;833.0;;False
1071;Kars;Kars;Kars, Kars;40.6;43.095;91449.0;;True
1072;Kazıkkaya;Kars;Kazıkkaya, Kars;40.016;42.698;764.0;;False
1073;Kocaköy;Kars;Kocaköy, Kars;40.289;43.461;1815.0;;False
1074;Koçköyü;Kars;Koçköyü, Kars;40.865;43.517;818.0;Koçköy;False
1075;Kuloğlu;Kars;Kuloğlu, Kars;40.093;42.954;1040.0;;False
1076;Kümbetli;Kars;Kümbetli, Kars;40.536;42.996;1361.0;;False
1077;Ölçülü;Kars;Ölçülü, Kars;40.565;43.247;1474.0;;False
1078;Sarıkamış;Kars;Sarıkamış, Kars;40.332;42.592;15260.0;;False
1079;Selim;Kars;Selim, Kars;40.463;42.786;5563.0;;False
1080;Susuz;Kars;Susuz, Kars;40.78;43.135;2044.0;;False
1081;Türkmeşen;Kars;Türkmeşen, Kars;40.377;43.23;809.0;;False
1082;Abana;Kastamonu;Abana, Kastamonu;41.977;34.013;3495.0;;False
1083;Ağlı;Kastamonu;Ağlı, Kastamonu;41.685;33.554;2094.0;;False
1084;Alatarla;Kastamonu;Alatarla, Kastamonu;41.49;34.025;1056.0;;False
1085;Araç;Kastamonu;Araç, Kastamonu;41.245;33.33;6675.0;;False
1086;Azdavay;Kastamonu;Azdavay, Kastamonu;41.643;33.299;3130.0;;False
1087;Bozkurt;Kastamonu;Bozkurt, Kastamonu;41.958;34.014;5182.0;;False
1088;Çatalzeytin;Kastamonu;Çatalzeytin, Kastamonu;41.952;34.215;3427.0;;False
1089;Cide;Kastamonu;Cide, Kastamonu;41.892;33.002;8519.0;;False
1090;Daday;Kastamonu;Daday, Kastamonu;41.478;33.467;2733.0;;False
1091;Devrekani;Kastamonu;Devrekani, Kastamonu;41.601;33.836;5529.0;;False
1092;Doğanyurt;Kastamonu;Doğanyurt, Kastamonu;42.004;33.46;1054.0;;False
1093;Hanönü;Kastamonu;Hanönü, Kastamonu;41.625;34.463;2136.0;;False
1094;İğdir;Kastamonu;İğdir, Kastamonu;41.224;33.135;1426.0;;False
1095;İhsangazi;Kastamonu;İhsangazi, Kastamonu;41.203;33.552;2827.0;;False
1096;İnebolu;Kastamonu;İnebolu, Kastamonu;41.976;33.76;10531.0;;False
1097;Kastamonu;Kastamonu;Kastamonu, Kastamonu;41.376;33.778;128707.0;Budamış;False
1098;Küre;Kastamonu;Küre, Kastamonu;41.806;33.71;2469.0;;False
1099;Örencik;Kastamonu;Örencik, Kastamonu;41.348;33.785;977.0;;False
1100;Pınarbaşı;Kastamonu;Pınarbaşı, Kastamonu;41.602;33.107;2493.0;;False
1101;Şenpazar;Kastamonu;Şenpazar, Kastamonu;41.809;33.231;1609.0;;False
1102;Seydiler;Kastamonu;Seydiler, Kastamonu;41.619;33.716;2933.0;;False
1103;Taşköprü;Kastamonu;Taşköprü, Kastamonu;41.515;34.214;16829.0;;False
1104;Tosya;Kastamonu;Tosya, Kastamonu;41.016;34.038;29133.0;;False
1105;Çukuroba;Kilis;Çukuroba, Kilis;36.764;37.143;1585.0;;False
1106;Elbeyli;Kilis;Elbeyli, Kilis;36.675;37.466;1974.0;;False
1107;Gülbaba;Kilis;Gülbaba, Kilis;36.83;36.795;871.0;;False
1108;Hasancalı;Kilis;Hasancalı, Kilis;36.884;36.817;1616.0;;False
1109;Kilis;Kilis;Kilis, Kilis;36.716;37.115;111648.0;;True
1110;Musabeyli;Kilis;Musabeyli, Kilis;36.886;36.918;1155.0;;False
1111;Tahtalıkaradut;Kilis;Tahtalıkaradut, Kilis;36.941;36.919;1272.0;;False
1112;Yavuzlu;Kilis;Yavuzlu, Kilis;36.696;37.272;1190.0;;False
1113;Yedigöz;Kilis;Yedigöz, Kilis;36.865;36.845;1011.0;;False
1114;Ahılı;Kırıkkale;Ahılı, Kırıkkale;39.793;33.525;1321.0;;False
1115;Bahşılı;Kırıkkale;Bahşılı, Kırıkkale;39.8;33.437;6045.0;;False
1116;Balışeyh;Kırıkkale;Balışeyh, Kırıkkale;39.912;33.72;2126.0;;False
1117;Çelebi;Kırıkkale;Çelebi, Kırıkkale;39.464;33.524;772.0;;False
1118;Çerikli;Kırıkkale;Çerikli, Kırıkkale;39.894;33.999;2000.0;;False
1119;Delice;Kırıkkale;Delice, Kırıkkale;39.947;34.033;3383.0;;False
1120;Hacılar;Kırıkkale;Hacılar, Kırıkkale;39.728;33.431;3056.0;;False
1121;Hasandede;Kırıkkale;Hasandede, Kırıkkale;39.763;33.513;1026.0;;False
1122;Irmak;Kırıkkale;Irmak, Kırıkkale;39.932;33.388;1125.0;;False
1123;Karakeçili;Kırıkkale;Karakeçili, Kırıkkale;39.594;33.379;2692.0;;False
1124;Keskin;Kırıkkale;Keskin, Kırıkkale;39.673;33.614;9183.0;;False
1125;Kırıkkale;Kırıkkale;Kırıkkale, Kırıkkale;39.84;33.503;186960.0;;True
1126;Sulakyurt;Kırıkkale;Sulakyurt, Kırıkkale;40.159;33.719;1990.0;;False
1127;Yahşihan;Kırıkkale;Yahşihan, Kırıkkale;39.85;33.452;31195.0;;False
1128;Ahmetbey;Kırklareli;Ahmetbey, Kırklareli;41.439;27.585;3628.0;;False
1129;Alpullu;Kırklareli;Alpullu, Kırklareli;41.368;27.143;2070.0;;False
1130;Babaeski;Kırklareli;Babaeski, Kırklareli;41.43;27.092;29215.0;;False
1131;Büyükkarıştıran;Kırklareli;Büyükkarıştıran, Kırklareli;41.3;27.544;6309.0;;False
1132;Büyükmandıra;Kırklareli;Büyükmandıra, Kırklareli;41.43;27.092;3305.0;;False
1133;Çakıllı;Kırklareli;Çakıllı, Kırklareli;41.513;27.874;1981.0;;False
1134;Celaliye;Kırklareli;Celaliye, Kırklareli;41.531;27.362;1259.0;;False
1135;Çiftlikköy;Kırklareli;Çiftlikköy, Kırklareli;41.289;27.471;818.0;;False
1136;Demirköy;Kırklareli;Demirköy, Kırklareli;41.823;27.763;3489.0;;False
1137;Düğüncübaşı;Kırklareli;Düğüncübaşı, Kırklareli;41.333;27.279;883.0;;False
1138;Evrenli;Kırklareli;Evrenli, Kırklareli;41.537;27.856;833.0;;False
1139;Evrensekiz;Kırklareli;Evrensekiz, Kırklareli;41.374;27.495;2666.0;;False
1140;Hamitabat;Kırklareli;Hamitabat, Kırklareli;41.508;27.285;1062.0;;False
1141;İğneada;Kırklareli;İğneada, Kırklareli;41.877;27.986;2511.0;;False
1142;İnece;Kırklareli;İnece, Kırklareli;41.677;27.068;1580.0;;False
1143;Karahalil;Kırklareli;Karahalil, Kırklareli;41.6;27.042;1298.0;;False
1144;Karakoç;Kırklareli;Karakoç, Kırklareli;41.776;27.226;4586.0;;False
1145;Kavaklı;Kırklareli;Kavaklı, Kırklareli;41.655;27.17;4682.0;;False
1146;Kaynarca;Kırklareli;Kaynarca, Kırklareli;41.659;27.471;1997.0;;False
1147;Kırıkköy;Kırklareli;Kırıkköy, Kırklareli;41.468;27.248;1558.0;;False
1148;Kırklareli;Kırklareli;Kırklareli, Kırklareli;41.735;27.222;85493.0;;True
1149;Kıyıköy;Kırklareli;Kıyıköy, Kırklareli;41.627;28.092;2160.0;;False
1150;Lüleburgaz;Kırklareli;Lüleburgaz, Kırklareli;41.404;27.357;125404.0;;False
1151;Nadırlı;Kırklareli;Nadırlı, Kırklareli;41.393;27.075;855.0;;False
1152;Pehlivanköy;Kırklareli;Pehlivanköy, Kırklareli;41.35;26.925;1654.0;;False
1153;Pınarhisar;Kırklareli;Pınarhisar, Kırklareli;41.627;27.515;10497.0;;False
1154;Sakızköy;Kırklareli;Sakızköy, Kırklareli;41.44;27.472;1042.0;;False
1155;Sergen;Kırklareli;Sergen, Kırklareli;41.707;27.708;1102.0;;False
1156;Sinanlı;Kırklareli;Sinanlı, Kırklareli;41.348;27.147;1063.0;;False
1157;Turgutbey;Kırklareli;Turgutbey, Kırklareli;41.459;27.387;913.0;;False
1158;Üsküp;Kırklareli;Üsküp, Kırklareli;41.734;27.407;2195.0;;False
1159;Vize;Kırklareli;Vize, Kırklareli;41.576;27.764;15116.0;;False
1160;Akçakent;Kırşehir;Akçakent, Kırşehir;39.624;34.096;755.0;;False
1161;Akpınar;Kırşehir;Akpınar, Kırşehir;39.448;33.968;2742.0;;False
1162;Boztepe;Kırşehir;Boztepe, Kırşehir;39.27;34.262;2680.0;;False
1163;Çayağzı;Kırşehir;Çayağzı, Kırşehir;39.278;34.079;913.0;;False
1164;Çiçekdağı;Kırşehir;Çiçekdağı, Kırşehir;39.607;34.413;6298.0;;False
1165;Demirli;Kırşehir;Demirli, Kırşehir;39.3;33.945;851.0;;False
1166;Kaman;Kırşehir;Kaman, Kırşehir;39.359;33.724;21340.0;;False
1167;Kırşehir;Kırşehir;Kırşehir, Kırşehir;39.148;34.164;150700.0;;True
1168;Köseli;Kırşehir;Köseli, Kırşehir;39.661;34.435;2313.0;;False
1169;Kurancılı;Kırşehir;Kurancılı, Kırşehir;39.332;33.902;1857.0;;False
1170;Mucur;Kırşehir;Mucur, Kırşehir;39.063;34.379;13350.0;;False
1171;Ömerhacılı;Kırşehir;Ömerhacılı, Kırşehir;39.298;33.822;750.0;;False
1172;Özbağ;Kırşehir;Özbağ, Kırşehir;39.216;34.143;3519.0;;False
1173;Savcılıbüyükoba;Kırşehir;Savcılıbüyükoba, Kırşehir;39.229;33.682;814.0;;False
1174;Akdağ;Kütahya;Akdağ, Kütahya;39.194;28.864;1885.0;;False
1175;Altınkent;Kütahya;Altınkent, Kütahya;39.005;29.461;883.0;;False
1176;Altıntaş;Kütahya;Altıntaş, Kütahya;39.068;30.18;5258.0;;False
1177;Aslanapa;Kütahya;Aslanapa, Kütahya;39.216;29.873;1793.0;;False
1178;Ayvalı;Kütahya;Ayvalı, Kütahya;39.546;29.373;1211.0;;False
1179;Balıköy;Kütahya;Balıköy, Kütahya;39.515;29.105;1497.0;;False
1180;Beyce;Kütahya;Beyce, Kütahya;39.098;28.94;1478.0;;False
1181;Çavdarhisar;Kütahya;Çavdarhisar, Kütahya;39.197;29.618;2099.0;;False
1182;Çitgöl;Kütahya;Çitgöl, Kütahya;39.123;28.951;3515.0;;False
1183;Çukurca;Kütahya;Çukurca, Kütahya;39.781;29.69;2099.0;;False
1184;Demirci;Kütahya;Demirci, Kütahya;39.101;28.919;1317.0;;False
1185;Derecik;Kütahya;Derecik, Kütahya;39.536;29.412;1059.0;;False
1186;Domaniç;Kütahya;Domaniç, Kütahya;39.802;29.612;4855.0;;False
1187;Dumlupınar;Kütahya;Dumlupınar, Kütahya;38.855;29.976;1214.0;;False
1188;Emet;Kütahya;Emet, Kütahya;39.344;29.258;11425.0;;False
1189;Erdoğmuş;Kütahya;Erdoğmuş, Kütahya;38.952;29.41;1347.0;;False
1190;Eskigediz;Kütahya;Eskigediz, Kütahya;39.045;29.434;2151.0;;False
1191;Fırdan;Kütahya;Fırdan, Kütahya;38.94;29.373;1201.0;;False
1192;Gediz;Kütahya;Gediz, Kütahya;38.986;29.394;26659.0;;False
1193;Gökler;Kütahya;Gökler, Kütahya;39.013;29.544;2066.0;;False
1194;Gümele;Kütahya;Gümele, Kütahya;38.962;29.454;889.0;;False
1195;Güney;Kütahya;Güney, Kütahya;39.185;28.916;1555.0;;False
1196;Günlüce;Kütahya;Günlüce, Kütahya;39.437;29.3;787.0;;False
1197;Hisarcık;Kütahya;Hisarcık, Kütahya;39.247;29.238;4767.0;;False
1198;Kızılcaören;Kütahya;Kızılcaören, Kütahya;39.196;30.245;843.0;;False
1199;Kuruçay;Kütahya;Kuruçay, Kütahya;39.504;29.514;1793.0;;False
1200;Kuşu;Kütahya;Kuşu, Kütahya;38.963;29.03;1952.0;;False
1201;Kütahya;Kütahya;Kütahya, Kütahya;39.42;29.986;263860.0;;True
1202;Muratlı;Kütahya;Muratlı, Kütahya;39.759;29.668;810.0;;False
1203;Naşa;Kütahya;Naşa, Kütahya;39.16;28.968;1864.0;;False
1204;Pazarlar;Kütahya;Pazarlar, Kütahya;38.995;29.124;3012.0;;False
1205;Şaphane;Kütahya;Şaphane, Kütahya;39.026;29.223;2853.0;;False
1206;Seyitömer;Kütahya;Seyitömer, Kütahya;39.585;29.868;1978.0;;False
1207;Simav;Kütahya;Simav, Kütahya;39.089;28.978;26872.0;Yeşilova;False
1208;Sırören;Kütahya;Sırören, Kütahya;39.626;29.977;848.0;;False
1209;Sofular;Kütahya;Sofular, Kütahya;38.95;29.161;809.0;;False
1210;Tavşanlı;Kütahya;Tavşanlı, Kütahya;39.546;29.489;73306.0;;False
1211;Tepecik;Kütahya;Tepecik, Kütahya;39.525;29.462;2647.0;;False
1212;Tunçbilek;Kütahya;Tunçbilek, Kütahya;39.621;29.467;4525.0;;False
1213;Üzümlü;Kütahya;Üzümlü, Kütahya;38.9;29.243;935.0;;False
1214;Yemişli;Kütahya;Yemişli, Kütahya;39.234;28.972;1079.0;;False
1215;Yenikent;Kütahya;Yenikent, Kütahya;38.869;29.288;2374.0;;False
1216;Yeniköy;Kütahya;Yeniköy, Kütahya;39.139;28.67;815.0;;False
1217;Yeşildere;Kütahya;Yeşildere, Kütahya;39.29;28.994;826.0;;False
1218;Yeşilköy;Kütahya;Yeşilköy, Kütahya;39.068;29.025;878.0;;False
1219;Adaksu;Muş;Adaksu, Muş;38.964;42.592;1217.0;;False
1220;Adıvar;Muş;Adıvar, Muş;39.217;42.177;1096.0;;False
1221;Ağartı;Muş;Ağartı, Muş;38.971;41.275;1027.0;;False
1222;Alagün;Muş;Alagün, Muş;39.011;41.788;768.0;;False
1223;Alazlı;Muş;Alazlı, Muş;38.692;41.824;1147.0;;False
1224;Altınova;Muş;Altınova, Muş;38.681;41.932;2587.0;;False
1225;Arpayazı;Muş;Arpayazı, Muş;38.802;41.383;987.0;;False
1226;Aşağıüçdam;Muş;Aşağıüçdam, Muş;38.666;41.833;948.0;;False
1227;Azıklı;Muş;Azıklı, Muş;38.644;41.731;894.0;;False
1228;Bahçeköy;Muş;Bahçeköy, Muş;38.972;41.414;925.0;;False
1229;Balkır;Muş;Balkır, Muş;38.796;41.774;759.0;;False
1230;Balotu;Muş;Balotu, Muş;39.113;42.135;1693.0;;False
1231;Beşçatak;Muş;Beşçatak, Muş;39.195;42.503;894.0;;False
1232;Bostankent;Muş;Bostankent, Muş;39.009;41.843;1596.0;;False
1233;Bozbulut;Muş;Bozbulut, Muş;38.853;41.441;801.0;;False
1234;Bulanık;Muş;Bulanık, Muş;39.095;42.272;27427.0;;False
1235;Çatbaşı;Muş;Çatbaşı, Muş;38.81;41.445;902.0;;False
1236;Çayçatı;Muş;Çayçatı, Muş;39.186;41.292;911.0;;False
1237;Çayırdere;Muş;Çayırdere, Muş;39.121;42.413;946.0;;False
1238;Çöğürlü;Muş;Çöğürlü, Muş;38.751;41.528;2328.0;;False
1239;Demirkapı;Muş;Demirkapı, Muş;39.094;41.906;999.0;;False
1240;Donatım;Muş;Donatım, Muş;38.72;41.536;779.0;;False
1241;Düzkışla;Muş;Düzkışla, Muş;38.699;41.718;2383.0;;False
1242;Elmabulak;Muş;Elmabulak, Muş;38.66;41.684;862.0;;False
1243;Elmakaya;Muş;Elmakaya, Muş;39.031;42.479;2452.0;;False
1244;Erentepe;Muş;Erentepe, Muş;39.015;42.049;3596.0;;False
1245;Esenlik;Muş;Esenlik, Muş;39.012;42.097;1227.0;;False
1246;Eşmepınar;Muş;Eşmepınar, Muş;38.673;41.742;1809.0;;False
1247;Gökyazı;Muş;Gökyazı, Muş;38.63;41.88;1255.0;;False
1248;Gölyanı;Muş;Gölyanı, Muş;38.994;42.292;967.0;;False
1249;Gülkoru;Muş;Gülkoru, Muş;39.099;42.647;1468.0;;False
1250;Güneyik;Muş;Güneyik, Muş;38.679;41.878;1546.0;;False
1251;Güven;Muş;Güven, Muş;38.803;41.746;830.0;;False
1252;Güzeltepe;Muş;Güzeltepe, Muş;38.773;41.438;3992.0;;False
1253;Haksever;Muş;Haksever, Muş;39.107;41.332;876.0;;False
1254;Harman;Muş;Harman, Muş;38.776;41.398;1128.0;;False
1255;Hasköy;Muş;Hasköy, Muş;38.682;41.691;13057.0;;False
1256;Hasretpınar;Muş;Hasretpınar, Muş;39.093;42.451;834.0;;False
1257;İyikomşu;Muş;İyikomşu, Muş;39.429;42.259;854.0;;False
1258;Kapılı;Muş;Kapılı, Muş;38.683;41.861;968.0;;False
1259;Karaağaçlı;Muş;Karaağaçlı, Muş;38.692;41.636;1924.0;;False
1260;Karaağıl;Muş;Karaağıl, Muş;39.139;42.086;1516.0;;False
1261;Karaburun;Muş;Karaburun, Muş;38.955;42.275;771.0;;False
1262;Karakale;Muş;Karakale, Muş;38.826;41.94;1090.0;;False
1263;Karakuyu;Muş;Karakuyu, Muş;38.8;41.361;1204.0;;False
1264;Karameşe;Muş;Karameşe, Muş;39.115;41.381;924.0;;False
1265;Kaynarca;Muş;Kaynarca, Muş;39.18;41.254;827.0;;False
1266;Kepenek;Muş;Kepenek, Muş;38.708;41.547;2487.0;;False
1267;Kırkgöze;Muş;Kırkgöze, Muş;39.02;42.379;2426.0;;False
1268;Kırköy;Muş;Kırköy, Muş;38.83;41.654;1801.0;;False
1269;Kıyık;Muş;Kıyık, Muş;38.835;41.457;1354.0;;False
1270;Kızılağaç;Muş;Kızılağaç, Muş;38.782;41.319;2694.0;;False
1271;Konakdüzü;Muş;Konakdüzü, Muş;38.682;41.926;1095.0;;False
1272;Konakkuran;Muş;Konakkuran, Muş;39.283;42.509;1475.0;;False
1273;Konukbekler;Muş;Konukbekler, Muş;38.896;41.362;3770.0;;False
1274;Köprüyolu;Muş;Köprüyolu, Muş;39.119;42.016;1083.0;;False
1275;Korkut;Muş;Korkut, Muş;38.743;41.784;3409.0;;False
1276;Leylek;Muş;Leylek, Muş;39.203;41.391;766.0;;False
1277;Malazgirt;Muş;Malazgirt, Muş;39.146;42.541;18873.0;;False
1278;Mollakent;Muş;Mollakent, Muş;38.955;42.07;1079.0;;False
1279;Muş;Muş;Muş, Muş;38.737;41.494;116707.0;Bağlar, Sütlüce, Yeşilce;False
1280;Oğlakkaya;Muş;Oğlakkaya, Muş;38.958;41.967;849.0;;False
1281;Oğulbalı;Muş;Oğulbalı, Muş;38.718;41.824;930.0;;False
1282;Örenkent;Muş;Örenkent, Muş;39.025;42.242;1394.0;;False
1283;Ortakent;Muş;Ortakent, Muş;38.822;41.37;1054.0;;False
1284;Rüstemgedik;Muş;Rüstemgedik, Muş;39.149;42.305;2170.0;;False
1285;Sarıpınar;Muş;Sarıpınar, Muş;39.204;42.143;1974.0;;False
1286;Sazlıkbaşı;Muş;Sazlıkbaşı, Muş;38.677;41.985;1055.0;;False
1287;Şenoba;Muş;Şenoba, Muş;38.893;41.519;777.0;;False
1288;Serinova;Muş;Serinova, Muş;38.928;41.546;2177.0;;False
1289;Soğucak;Muş;Soğucak, Muş;38.726;41.513;1856.0;;False
1290;Söğütlü;Muş;Söğütlü, Muş;38.986;42.367;905.0;;False
1291;Sungu;Muş;Sungu, Muş;38.75;41.609;5903.0;;False
1292;Suvaran;Muş;Suvaran, Muş;38.768;41.403;1452.0;;False
1293;Tandoğan;Muş;Tandoğan, Muş;38.734;41.563;1891.0;;False
1294;Taşoluk;Muş;Taşoluk, Muş;38.886;41.548;1547.0;;False
1295;Tekyol;Muş;Tekyol, Muş;38.705;41.568;820.0;;False
1296;Üçdere;Muş;Üçdere, Muş;38.764;41.564;753.0;;False
1297;Uzgörür;Muş;Uzgörür, Muş;38.934;42.083;2201.0;;False
1298;Varto;Muş;Varto, Muş;39.171;41.454;10914.0;;False
1299;Yaramış;Muş;Yaramış, Muş;39.04;42.566;785.0;;False
1300;Yarpuzlu;Muş;Yarpuzlu, Muş;38.748;41.563;1315.0;;False
1301;Yaygın;Muş;Yaygın, Muş;38.904;41.307;4213.0;;False
1302;Yazbaşı;Muş;Yazbaşı, Muş;39.28;42.225;1030.0;;False
1303;Yedipınar;Muş;Yedipınar, Muş;38.812;41.716;818.0;;False
1304;Yemişen;Muş;Yemişen, Muş;38.968;42.09;1068.0;;False
1305;Yeşilova;Muş;Yeşilova, Muş;38.928;41.455;1944.0;;False
1306;Yokuşbaşı;Muş;Yokuşbaşı, Muş;38.906;41.998;1112.0;;False
1307;Yolgözler;Muş;Yolgözler, Muş;38.714;42.046;1198.0;;False
1308;Yoncalı;Muş;Yoncalı, Muş;39.13;42.185;2113.0;;False
1309;Yücetepe;Muş;Yücetepe, Muş;38.971;41.451;1150.0;;False
1310;Abuuşağı;Nevşehir;Abuuşağı, Nevşehir;38.852;34.318;858.0;;False
1311;Acıgöl;Nevşehir;Acıgöl, Nevşehir;38.552;34.508;5964.0;;False
1312;Akarca;Nevşehir;Akarca, Nevşehir;38.954;34.95;1084.0;;False
1313;Alacaşar;Nevşehir;Alacaşar, Nevşehir;38.62;34.593;938.0;;False
1314;Avanos;Nevşehir;Avanos, Nevşehir;38.72;34.845;14968.0;;False
1315;Başdere;Nevşehir;Başdere, Nevşehir;38.556;35.082;927.0;;False
1316;Boğaz;Nevşehir;Boğaz, Nevşehir;41.028;40.634;1176.0;Boğazköy;False
1317;Çakıllı;Nevşehir;Çakıllı, Nevşehir;38.428;34.658;1048.0;;False
1318;Çalış;Nevşehir;Çalış, Nevşehir;38.986;34.867;1810.0;;False
1319;Çardak;Nevşehir;Çardak, Nevşehir;38.55;34.768;1877.0;;False
1320;Çat;Nevşehir;Çat, Nevşehir;38.679;34.658;2031.0;;False
1321;Derinkuyu;Nevşehir;Derinkuyu, Nevşehir;38.373;34.739;10912.0;;False
1322;Göre;Nevşehir;Göre, Nevşehir;38.59;34.715;2516.0;;False
1323;Göreme;Nevşehir;Göreme, Nevşehir;38.643;34.829;2034.0;;False
1324;Göynük;Nevşehir;Göynük, Nevşehir;38.794;34.883;1011.0;;False
1325;Gülşehir;Nevşehir;Gülşehir, Nevşehir;38.742;34.622;9596.0;;False
1326;Hacıbektaş;Nevşehir;Hacıbektaş, Nevşehir;38.944;34.559;5325.0;;False
1327;İcik;Nevşehir;İcik, Nevşehir;38.503;34.603;1614.0;;False
1328;İnallı;Nevşehir;İnallı, Nevşehir;38.58;34.511;937.0;;False
1329;Kalaba;Nevşehir;Kalaba, Nevşehir;38.969;34.995;4195.0;;False
1330;Karaburna;Nevşehir;Karaburna, Nevşehir;38.878;34.459;1018.0;;False
1331;Karacaören;Nevşehir;Karacaören, Nevşehir;38.537;34.595;2511.0;;False
1332;Karacaşar;Nevşehir;Karacaşar, Nevşehir;38.7;34.576;1785.0;;False
1333;Karahasanlı;Nevşehir;Karahasanlı, Nevşehir;39.293;34.72;948.0;;False
1334;Karapınar;Nevşehir;Karapınar, Nevşehir;38.515;34.547;2917.0;;False
1335;Kavak;Nevşehir;Kavak, Nevşehir;38.573;34.822;2587.0;;False
1336;Kaymaklı;Nevşehir;Kaymaklı, Nevşehir;38.457;34.751;4315.0;;False
1337;Kozaklı;Nevşehir;Kozaklı, Nevşehir;39.217;34.851;7589.0;;False
1338;Kurugöl;Nevşehir;Kurugöl, Nevşehir;38.432;34.515;902.0;;False
1339;Kuyulutatlar;Nevşehir;Kuyulutatlar, Nevşehir;38.368;34.562;1109.0;;False
1340;Mahmat;Nevşehir;Mahmat, Nevşehir;38.882;34.966;1132.0;;False
1341;Mazı;Nevşehir;Mazı, Nevşehir;38.47;34.839;1133.0;;False
1342;Mustafapaşa;Nevşehir;Mustafapaşa, Nevşehir;38.584;34.897;1295.0;;False
1343;Nar;Nevşehir;Nar, Nevşehir;38.64;34.716;5017.0;;False
1344;Nevşehir;Nevşehir;Nevşehir, Nevşehir;38.625;34.714;123882.0;;True
1345;Ortahisar;Nevşehir;Ortahisar, Nevşehir;38.623;34.865;3086.0;;False
1346;Özkonak;Nevşehir;Özkonak, Nevşehir;38.813;34.85;3151.0;;False
1347;Özlüce;Nevşehir;Özlüce, Nevşehir;38.453;34.68;866.0;;False
1348;Özyayla;Nevşehir;Özyayla, Nevşehir;38.492;34.632;1109.0;;False
1349;Sulusaray;Nevşehir;Sulusaray, Nevşehir;38.697;34.716;2012.0;;False
1350;Suvermez;Nevşehir;Suvermez, Nevşehir;38.371;34.648;1504.0;;False
1351;Tatların;Nevşehir;Tatların, Nevşehir;38.635;34.469;1976.0;;False
1352;Tepeköy;Nevşehir;Tepeköy, Nevşehir;38.58;34.566;872.0;;False
1353;Terlemez;Nevşehir;Terlemez, Nevşehir;38.734;34.301;873.0;;False
1354;Topaç;Nevşehir;Topaç, Nevşehir;38.475;34.559;1210.0;;False
1355;Topaklı;Nevşehir;Topaklı, Nevşehir;39.006;34.823;1084.0;;False
1356;Tuzköyü;Nevşehir;Tuzköyü, Nevşehir;38.766;34.504;1093.0;;False
1357;Uçhisar;Nevşehir;Uçhisar, Nevşehir;38.629;34.806;3555.0;;False
1358;Ürgüp;Nevşehir;Ürgüp, Nevşehir;38.634;34.911;24647.0;;False
1359;Yazıhüyük;Nevşehir;Yazıhüyük, Nevşehir;38.346;34.638;3733.0;;False
1360;Ağcaşar;Niğde;Ağcaşar, Niğde;38.322;34.729;2441.0;;False
1361;Aktaş;Niğde;Aktaş, Niğde;38.025;34.769;2024.0;;False
1362;Alay;Niğde;Alay, Niğde;38.255;34.703;3038.0;;False
1363;Altunhisar;Niğde;Altunhisar, Niğde;37.997;34.371;3171.0;;False
1364;Azatlı;Niğde;Azatlı, Niğde;38.166;34.517;3670.0;;False
1365;Bademdere;Niğde;Bademdere, Niğde;37.921;35.069;1042.0;;False
1366;Bağlama;Niğde;Bağlama, Niğde;38.241;34.66;2139.0;;False
1367;Bahçeli;Niğde;Bahçeli, Niğde;37.833;34.61;2179.0;;False
1368;Bor;Niğde;Bor, Niğde;37.894;34.56;41995.0;;False
1369;Bozköy;Niğde;Bozköy, Niğde;38.237;34.481;3793.0;;False
1370;Burç;Niğde;Burç, Niğde;37.801;34.977;1144.0;;False
1371;Çamardı;Niğde;Çamardı, Niğde;37.832;34.985;3408.0;;False
1372;Çardak;Niğde;Çardak, Niğde;38.197;34.421;1672.0;;False
1373;Çavdarlı;Niğde;Çavdarlı, Niğde;38.085;34.897;1026.0;;False
1374;Çayırlı;Niğde;Çayırlı, Niğde;38.067;34.966;1182.0;;False
1375;Çiftehan;Niğde;Çiftehan, Niğde;37.515;34.768;958.0;;False
1376;Çiftlik;Niğde;Çiftlik, Niğde;38.177;34.487;3828.0;;False
1377;Çukurkuyu;Niğde;Çukurkuyu, Niğde;37.868;34.336;2312.0;;False
1378;Darboğaz;Niğde;Darboğaz, Niğde;37.471;34.559;1479.0;;False
1379;Değirmenli;Niğde;Değirmenli, Niğde;38.041;34.901;1569.0;;False
1380;Divarlı;Niğde;Divarlı, Niğde;38.206;34.465;4198.0;;False
1381;Dündarlı;Niğde;Dündarlı, Niğde;38.085;35.191;2267.0;;False
1382;Edikli;Niğde;Edikli, Niğde;38.245;34.952;4618.0;;False
1383;Elmalı;Niğde;Elmalı, Niğde;38.033;34.983;756.0;;False
1384;Fertek;Niğde;Fertek, Niğde;37.975;34.621;9287.0;;False
1385;Gösterli;Niğde;Gösterli, Niğde;38.334;34.497;914.0;;False
1386;Gümüşler;Niğde;Gümüşler, Niğde;37.993;34.772;2950.0;;False
1387;Hacıabdullah;Niğde;Hacıabdullah, Niğde;38.174;34.635;1871.0;;False
1388;Hasaköy;Niğde;Hasaköy, Niğde;38.22;34.704;819.0;;False
1389;Hasangazi;Niğde;Hasangazi, Niğde;37.54;34.627;828.0;;False
1390;Karaatlı;Niğde;Karaatlı, Niğde;38.135;34.967;3078.0;;False
1391;Karakapı;Niğde;Karakapı, Niğde;38.059;34.158;2425.0;;False
1392;Kayırlı;Niğde;Kayırlı, Niğde;38.307;34.498;962.0;;False
1393;Kaynarca;Niğde;Kaynarca, Niğde;37.853;34.637;779.0;;False
1394;Keçikalesi;Niğde;Keçikalesi, Niğde;38.061;34.118;1703.0;;False
1395;Kemerhisar;Niğde;Kemerhisar, Niğde;37.825;34.572;5463.0;;False
1396;Kılan;Niğde;Kılan, Niğde;37.482;34.468;1596.0;Aktoprak;False
1397;Kiledere;Niğde;Kiledere, Niğde;38.307;34.689;5469.0;;False
1398;Kitreli;Niğde;Kitreli, Niğde;38.17;34.351;1188.0;;False
1399;Kızılca;Niğde;Kızılca, Niğde;37.841;34.352;1050.0;;False
1400;Kömürcü;Niğde;Kömürcü, Niğde;38.28;34.573;2067.0;;False
1401;Konaklı;Niğde;Konaklı, Niğde;38.173;34.845;2884.0;;False
1402;Kula;Niğde;Kula, Niğde;38.169;34.448;2255.0;;False
1403;Niğde;Niğde;Niğde, Niğde;37.968;34.679;161224.0;;True
1404;Obruk;Niğde;Obruk, Niğde;37.999;34.01;1044.0;;False
1405;Orhanlı;Niğde;Orhanlı, Niğde;38.301;34.886;2384.0;;False
1406;Ovacık;Niğde;Ovacık, Niğde;38.073;34.816;767.0;;False
1407;Ovalıbağ;Niğde;Ovalıbağ, Niğde;38.208;34.443;1010.0;;False
1408;Sazlıca;Niğde;Sazlıca, Niğde;37.9;34.629;3898.0;;False
1409;Şeyhler;Niğde;Şeyhler, Niğde;38.173;34.437;1324.0;;False
1410;Ulukışla;Niğde;Ulukışla, Niğde;37.55;34.483;5696.0;;False
1411;Yakacık;Niğde;Yakacık, Niğde;38.022;34.346;1459.0;;False
1412;Yelatan;Niğde;Yelatan, Niğde;37.691;35.015;858.0;;False
1413;Yeşilgölcük;Niğde;Yeşilgölcük, Niğde;38.229;34.776;5425.0;;False
1414;Yıldıztepe;Niğde;Yıldıztepe, Niğde;38.175;34.676;1932.0;;False
1415;Akçataş;Osmaniye;Akçataş, Osmaniye;37.452;35.935;789.0;;False
1416;Akdam;Osmaniye;Akdam, Osmaniye;37.473;35.987;843.0;;False
1417;Akyar;Osmaniye;Akyar, Osmaniye;37.052;36.202;2490.0;;False
1418;Alibeyli;Osmaniye;Alibeyli, Osmaniye;37.437;36.058;1486.0;;False
1419;Alibozlu;Osmaniye;Alibozlu, Osmaniye;37.291;36.425;751.0;;False
1420;Atalan;Osmaniye;Atalan, Osmaniye;37.256;36.35;1593.0;;False
1421;Aydınlar;Osmaniye;Aydınlar, Osmaniye;37.353;36.006;1188.0;;False
1422;Bahçe;Osmaniye;Bahçe, Osmaniye;37.206;36.584;16110.0;;False
1423;Bekdemir;Osmaniye;Bekdemir, Osmaniye;37.238;36.565;1393.0;;False
1424;Böcekli;Osmaniye;Böcekli, Osmaniye;37.296;36.36;2160.0;;False
1425;Bostanlar;Osmaniye;Bostanlar, Osmaniye;37.253;36.391;1159.0;;False
1426;Büyüktüysüz;Osmaniye;Büyüktüysüz, Osmaniye;37.025;36.109;4171.0;;False
1427;Çardak;Osmaniye;Çardak, Osmaniye;37.089;36.301;1853.0;;False
1428;Çerçioğlu;Osmaniye;Çerçioğlu, Osmaniye;37.313;36.291;1052.0;;False
1429;Cevdetiye;Osmaniye;Cevdetiye, Osmaniye;37.136;36.197;6239.0;;False
1430;Çiçeklidere;Osmaniye;Çiçeklidere, Osmaniye;37.592;36.063;904.0;;False
1431;Çona;Osmaniye;Çona, Osmaniye;37.104;36.318;1245.0;;False
1432;Dereli;Osmaniye;Dereli, Osmaniye;37.099;36.309;1708.0;;False
1433;Dereobası;Osmaniye;Dereobası, Osmaniye;37.044;36.248;1793.0;;False
1434;Dervişli;Osmaniye;Dervişli, Osmaniye;37.135;36.305;1424.0;;False
1435;Düziçi;Osmaniye;Düziçi, Osmaniye;37.257;36.47;56724.0;Çamiçi;False
1436;Ellek;Osmaniye;Ellek, Osmaniye;37.215;36.375;6277.0;;False
1437;Gafarlı;Osmaniye;Gafarlı, Osmaniye;37.494;36.022;1261.0;;False
1438;Gökçayır;Osmaniye;Gökçayır, Osmaniye;37.29;36.467;1801.0;;False
1439;Gümüş;Osmaniye;Gümüş, Osmaniye;37.316;36.336;854.0;;False
1440;Hasanbeyli;Osmaniye;Hasanbeyli, Osmaniye;37.133;36.553;2638.0;;False
1441;İlbistanlı;Osmaniye;İlbistanlı, Osmaniye;37.461;36.145;1330.0;;False
1442;Issızca;Osmaniye;Issızca, Osmaniye;37.122;36.355;1440.0;;False
1443;Kadirli;Osmaniye;Kadirli, Osmaniye;37.373;36.097;98469.0;;False
1444;Karakütük;Osmaniye;Karakütük, Osmaniye;37.414;36.134;1210.0;;False
1445;Kırıklı;Osmaniye;Kırıklı, Osmaniye;37.141;36.433;844.0;;False
1446;Kırmacılı;Osmaniye;Kırmacılı, Osmaniye;37.223;36.141;980.0;;False
1447;Kırmıtlı;Osmaniye;Kırmıtlı, Osmaniye;37.158;36.13;767.0;;False
1448;Kızyusuflu;Osmaniye;Kızyusuflu, Osmaniye;37.329;36.208;969.0;;False
1449;Koçlu;Osmaniye;Koçlu, Osmaniye;37.514;36.186;929.0;;False
1450;Lalegölü;Osmaniye;Lalegölü, Osmaniye;37.053;36.071;840.0;;False
1451;Mehmetli;Osmaniye;Mehmetli, Osmaniye;37.482;36.048;1474.0;;False
1452;Osmaniye;Osmaniye;Osmaniye, Osmaniye;37.076;36.252;252186.0;;True
1453;Pirsultanlı;Osmaniye;Pirsultanlı, Osmaniye;37.31;36.324;913.0;;False
1454;Şabaplı;Osmaniye;Şabaplı, Osmaniye;37.394;36.09;939.0;;False
1455;Sayhüyük;Osmaniye;Sayhüyük, Osmaniye;37.089;36.107;903.0;;False
1456;Şekerdere;Osmaniye;Şekerdere, Osmaniye;37.164;36.37;1014.0;;False
1457;Sumbas;Osmaniye;Sumbas, Osmaniye;37.444;36.03;1999.0;;False
1458;Tehçi;Osmaniye;Tehçi, Osmaniye;37.153;36.331;1240.0;;False
1459;Toprakkale;Osmaniye;Toprakkale, Osmaniye;37.068;36.148;11411.0;;False
1460;Tüysüz;Osmaniye;Tüysüz, Osmaniye;37.055;36.095;2919.0;Turkmen;False
1461;Yarbaşı;Osmaniye;Yarbaşı, Osmaniye;37.196;36.434;3559.0;;False
1462;Yarpuz;Osmaniye;Yarpuz, Osmaniye;37.049;36.432;794.0;;False
1463;Yazlamazlı;Osmaniye;Yazlamazlı, Osmaniye;37.234;36.357;1401.0;;False
1464;Yeşilyayla;Osmaniye;Yeşilyayla, Osmaniye;37.553;36.09;975.0;;False
1465;Yoğunoluk;Osmaniye;Yoğunoluk, Osmaniye;37.575;36.211;1070.0;;False
1466;Yukarıçiyanlı;Osmaniye;Yukarıçiyanlı, Osmaniye;37.359;36.176;826.0;;False
1467;Yukarıkardere;Osmaniye;Yukarıkardere, Osmaniye;37.231;36.641;1071.0;;False
1468;Yusufizzettin;Osmaniye;Yusufizzettin, Osmaniye;37.408;36.076;785.0;;False
1469;Akpınar;Rize;Akpınar, Rize;41.043;40.653;783.0;;False
1470;Ambarlık;Rize;Ambarlık, Rize;40.912;40.545;1370.0;;False
1471;Ardeşen;Rize;Ardeşen, Rize;41.192;40.988;30454.0;;False
1472;Büyükköy;Rize;Büyükköy, Rize;41.017;40.673;2399.0;;False
1473;Çamlıhemşin;Rize;Çamlıhemşin, Rize;41.045;41.005;1789.0;;False
1474;Çayeli;Rize;Çayeli, Rize;41.09;40.726;24463.0;;False
1475;Derepazarı;Rize;Derepazarı, Rize;41.025;40.426;3716.0;;False
1476;Dikkaya;Rize;Dikkaya, Rize;41.087;41.03;1020.0;;False
1477;Fındıklı;Rize;Fındıklı, Rize;41.272;41.146;11071.0;;False
1478;Güneysu;Rize;Güneysu, Rize;40.972;40.612;6742.0;;False
1479;Hamidiye;Rize;Hamidiye, Rize;41.176;40.953;1464.0;;False
1480;Hemşin;Rize;Hemşin, Rize;41.051;40.9;1367.0;;False
1481;İkizdere;Rize;İkizdere, Rize;40.784;40.553;1844.0;;False
1482;İyidere;Rize;İyidere, Rize;41.014;40.365;5210.0;;False
1483;Kalkandere;Rize;Kalkandere, Rize;40.929;40.442;6540.0;;False
1484;Karasu;Rize;Karasu, Rize;40.899;40.563;983.0;;False
1485;Kendirli;Rize;Kendirli, Rize;40.973;40.431;2767.0;;False
1486;Kıbledağı;Rize;Kıbledağı, Rize;40.951;40.636;1200.0;;False
1487;Kocaköprü;Rize;Kocaköprü, Rize;41.137;40.903;885.0;;False
1488;Küçükçayır;Rize;Küçükçayır, Rize;40.894;40.585;930.0;;False
1489;Madenli;Rize;Madenli, Rize;41.044;40.766;2649.0;;False
1490;Muradiye;Rize;Muradiye, Rize;40.953;40.553;2590.0;;False
1491;Ocak;Rize;Ocak, Rize;41.163;40.932;1172.0;;False
1492;Ormanlı;Rize;Ormanlı, Rize;40.944;40.418;1368.0;;False
1493;Pazar;Rize;Pazar, Rize;41.179;40.884;16171.0;;False
1494;Pazarköy;Rize;Pazarköy, Rize;40.998;40.578;992.0;;False
1495;Pekmezli;Rize;Pekmezli, Rize;41.014;40.581;804.0;;False
1496;Rize;Rize;Rize, Rize;41.022;40.52;122555.0;Alipaşa, Çiftekavak, Gündoğdu;False
1497;Salarha;Rize;Salarha, Rize;40.968;40.528;2186.0;Çaykent;False
1498;Topluca;Rize;Topluca, Rize;41.064;41.024;1013.0;;False
1499;Tunca;Rize;Tunca, Rize;41.127;41.121;3647.0;;False
1500;Veliköy;Rize;Veliköy, Rize;41.027;40.62;866.0;;False
1501;Yolbaşı;Rize;Yolbaşı, Rize;40.938;40.441;788.0;;False
1502;Atabağı;Siirt;Atabağı, Siirt;38.062;41.661;3488.0;;False
1503;Baykan;Siirt;Baykan, Siirt;38.164;41.785;5393.0;;False
1504;Beğendik;Siirt;Beğendik, Siirt;37.976;42.648;2024.0;;False
1505;Belenoluk;Siirt;Belenoluk, Siirt;37.915;42.777;761.0;;False
1506;Bölüktepe;Siirt;Bölüktepe, Siirt;38.022;41.674;2482.0;;False
1507;Cevizlik;Siirt;Cevizlik, Siirt;38.179;42.229;1228.0;;False
1508;Dikboğaz;Siirt;Dikboğaz, Siirt;37.695;42.107;762.0;;False
1509;Doğanköy;Siirt;Doğanköy, Siirt;37.763;42.789;2348.0;;False
1510;Doluharman;Siirt;Doluharman, Siirt;37.986;41.916;849.0;;False
1511;Düğüncüler;Siirt;Düğüncüler, Siirt;37.849;42.73;1060.0;;False
1512;Ekmekçiler;Siirt;Ekmekçiler, Siirt;37.886;42.128;915.0;;False
