index;City;State;Population;Latitude;Longitude;city-state;AlternateNames;isStateCapital
5;Abbateggio;Abruzzo;359;42.20443765916116;14.022337781777518;Abbateggio, Abruzzo;;False
13;Acciano;Abruzzo;241;42.19287043118605;13.70677449942375;Acciano, Abruzzo;;False
78;Aielli;Abruzzo;1368;42.07529132324339;13.582029402566445;Aielli, Abruzzo;;False
94;Alanno;Abruzzo;3320;42.29092684382693;13.985966278280545;Alanno, Abruzzo;;False
99;Alba Adriatica;Abruzzo;13319;42.82242807550368;13.907554810979654;Alba Adriatica, Abruzzo;;False
146;Alfedena;Abruzzo;913;41.71558515799135;14.009651594744533;Alfedena, Abruzzo;;False
188;Altino;Abruzzo;2990;42.106092337837694;14.348840161724013;Altino, Abruzzo;;False
225;Ancarano;Abruzzo;1865;42.840486838693955;13.74760875198926;Ancarano, Abruzzo;;False
262;Anversa degli Abruzzi;Abruzzo;301;41.987970304086254;13.811351291533244;Anversa degli Abruzzi, Abruzzo;;False
299;Archi;Abruzzo;1914;42.08101354895247;14.384843314450908;Archi, Abruzzo;;False
326;Ari;Abruzzo;1063;42.2862530969316;14.256252288513512;Ari, Abruzzo;;False
330;Arielli;Abruzzo;1036;42.25717825254043;14.301070554718008;Arielli, Abruzzo;;False
359;Arsita;Abruzzo;728;42.47296966894486;13.775861270832216;Arsita, Abruzzo;;False
391;Ateleta;Abruzzo;1078;41.873123300467064;14.173396374486646;Ateleta, Abruzzo;;False
394;Atessa;Abruzzo;10266;42.08700320605387;14.460421420998694;Atessa, Abruzzo;;False
397;Atri;Abruzzo;9830;42.58409892730213;13.98025309552786;Atri, Abruzzo;;False
417;Avezzano;Abruzzo;40887;42.037202326743;13.446193775086048;Avezzano, Abruzzo;;False
490;Balsorano;Abruzzo;3232;41.799560400548366;13.5837559189411;Balsorano, Abruzzo;;False
529;Barete;Abruzzo;637;42.44934557594541;13.275060927221258;Barete, Abruzzo;;False
539;Barisciano;Abruzzo;1660;42.34880089386954;13.584460195854804;Barisciano, Abruzzo;;False
548;Barrea;Abruzzo;690;41.768089183178034;13.978070555029436;Barrea, Abruzzo;;False
557;Basciano;Abruzzo;2316;42.587440005834424;13.735447608697482;Basciano, Abruzzo;;False
600;Bellante;Abruzzo;6857;42.74101688690214;13.81009569412042;Bellante, Abruzzo;;False
702;Bisegna;Abruzzo;212;41.914611285569414;13.775222951114584;Bisegna, Abruzzo;;False
703;Bisenti;Abruzzo;1636;42.52822701134045;13.804508846905344;Bisenti, Abruzzo;;False
740;Bolognano;Abruzzo;992;42.2138319524431;13.950335527626123;Bolognano, Abruzzo;;False
750;Bomba;Abruzzo;696;42.03803936419512;14.369316504085916;Bomba, Abruzzo;;False
835;Borrello;Abruzzo;338;41.914177700885546;14.313855360346851;Borrello, Abruzzo;;False
928;Brittoli;Abruzzo;240;42.30490806080993;13.854422469995928;Brittoli, Abruzzo;;False
963;Bucchianico;Abruzzo;4908;42.30467471921883;14.176473030960604;Bucchianico, Abruzzo;;False
975;Bugnara;Abruzzo;1017;42.01641807481624;13.85323455475495;Bugnara, Abruzzo;;False
1003;Bussi sul Tirino;Abruzzo;2238;42.21886858855601;13.832680319028873;Bussi sul Tirino, Abruzzo;;False
1033;Cagnano Amiterno;Abruzzo;1085;42.451629905038125;13.198938230389311;Cagnano Amiterno, Abruzzo;;False
1052;Calascio;Abruzzo;120;42.36375098402276;13.691499848158209;Calascio, Abruzzo;;False
1154;Campli;Abruzzo;6542;42.73442635320888;13.697272560048296;Campli, Abruzzo;;False
1156;Campo di Giove;Abruzzo;746;41.99827433468334;14.065416195868046;Campo di Giove, Abruzzo;;False
1199;Campotosto;Abruzzo;447;42.54924675208887;13.361464371987706;Campotosto, Abruzzo;;False
1226;Canistro;Abruzzo;944;41.93440053824161;13.397600651698417;Canistro, Abruzzo;;False
1238;Canosa Sannita;Abruzzo;1212;42.28948076679011;14.294754969413168;Canosa Sannita, Abruzzo;;False
1241;Cansano;Abruzzo;233;41.98444110595004;14.025807547770716;Cansano, Abruzzo;;False
1254;Canzano;Abruzzo;1771;42.64978937577487;13.80386590622837;Canzano, Abruzzo;;False
1265;Capestrano;Abruzzo;811;42.272454788185584;13.792966694190834;Capestrano, Abruzzo;;False
1268;Capistrello;Abruzzo;4653;41.976333070494896;13.375822196665062;Capistrello, Abruzzo;;False
1269;Capitignano;Abruzzo;604;42.52314125153655;13.305054239427845;Capitignano, Abruzzo;;False
1279;Caporciano;Abruzzo;204;42.245013694939345;13.671504311651384;Caporciano, Abruzzo;;False
1283;Cappadocia;Abruzzo;572;42.00530342643095;13.250815531763958;Cappadocia, Abruzzo;;False
1287;Cappelle sul Tavo;Abruzzo;4075;42.46883467455422;14.103881545572795;Cappelle sul Tavo, Abruzzo;;False
1320;Caramanico Terme;Abruzzo;1726;42.150453224674145;14.030029289367688;Caramanico Terme, Abruzzo;;False
1322;Carapelle Calvisio;Abruzzo;70;42.31755985311216;13.687288135433771;Carapelle Calvisio, Abruzzo;;False
1400;Carpineto Sinello;Abruzzo;432;41.99936278515247;14.504782807462384;Carpineto Sinello, Abruzzo;;False
1398;Carpineto della Nora;Abruzzo;510;42.34160448150793;13.836963351853433;Carpineto della Nora, Abruzzo;;False
1410;Carsoli;Abruzzo;4967;42.116521266609475;13.11414034808504;Carsoli, Abruzzo;;False
1418;Carunchio;Abruzzo;549;41.92015870749518;14.532361713505546;Carunchio, Abruzzo;;False
1423;Casacanditella;Abruzzo;1171;42.26253772832384;14.210889187870295;Casacanditella, Abruzzo;;False
1428;Casalanguida;Abruzzo;812;42.04658839950918;14.515627857434913;Casalanguida, Abruzzo;;False
1431;Casalbordino;Abruzzo;5674;42.163562074320176;14.5814014762397;Casalbordino, Abruzzo;;False
1458;Casalincontrada;Abruzzo;2964;42.29595358945979;14.117877164548045;Casalincontrada, Abruzzo;;False
1523;Casoli;Abruzzo;5093;42.127977633140226;14.292163669665156;Casoli, Abruzzo;;False
1568;Castel Castagna;Abruzzo;409;42.54143902264756;13.731221039455608;Castel Castagna, Abruzzo;;False
1586;Castel Frentano;Abruzzo;4198;42.19339263485922;14.351128746275297;Castel Frentano, Abruzzo;;False
1574;Castel del Monte;Abruzzo;374;42.392259151980525;13.73228645900381;Castel del Monte, Abruzzo;;False
1578;Castel di Ieri;Abruzzo;283;42.09732961924101;13.745204681858803;Castel di Ieri, Abruzzo;;False
1582;Castel di Sangro;Abruzzo;6627;41.7815629862324;14.120567328773992;Castel di Sangro, Abruzzo;;False
1639;Castelguidone;Abruzzo;278;41.82561139128954;14.532507126506475;Castelguidone, Abruzzo;;False
1645;Castellafiume;Abruzzo;1058;41.97762937602194;13.324264883414374;Castellafiume, Abruzzo;;False
1646;Castellalto;Abruzzo;7231;42.66621921556784;13.83672807105609;Castellalto, Abruzzo;;False
1673;Castelli;Abruzzo;933;42.485283904966735;13.725496406201644;Castelli, Abruzzo;;False
1745;Castelvecchio Calvisio;Abruzzo;123;42.32687324325217;13.680381320412772;Castelvecchio Calvisio, Abruzzo;;False
1747;Castelvecchio Subequo;Abruzzo;811;42.10982388414031;13.72165489271062;Castelvecchio Subequo, Abruzzo;;False
1776;Castiglione Messer Marino;Abruzzo;1447;41.87138250538358;14.443938624103264;Castiglione Messer Marino, Abruzzo;;False
1777;Castiglione Messer Raimondo;Abruzzo;1982;42.52013912796845;13.868252756868165;Castiglione Messer Raimondo, Abruzzo;;False
1762;Castiglione a Casauria;Abruzzo;719;42.23060885044866;13.896827820216004;Castiglione a Casauria, Abruzzo;;False
1782;Castilenti;Abruzzo;1288;42.535592156843144;13.941325682787802;Castilenti, Abruzzo;;False
1811;Catignano;Abruzzo;1240;42.35090568832086;13.96624169863119;Catignano, Abruzzo;;False
1862;Celano;Abruzzo;10119;42.0770578246529;13.566613958522266;Celano, Abruzzo;;False
1863;Celenza sul Trigno;Abruzzo;769;41.883028469205456;14.584267910298204;Celenza sul Trigno, Abruzzo;;False
1879;Cellino Attanasio;Abruzzo;2176;42.58661717739865;13.856474321506704;Cellino Attanasio, Abruzzo;;False
1897;Cepagatti;Abruzzo;10954;42.36915824373373;14.105823899418017;Cepagatti, Abruzzo;;False
1911;Cerchio;Abruzzo;1541;42.042543314530676;13.596592164764347;Cerchio, Abruzzo;;False
1935;Cermignano;Abruzzo;1405;42.58972513387087;13.8004825655893;Cermignano, Abruzzo;;False
2030;Chieti;Abruzzo;48434;42.358636062424495;14.162609370804496;Chieti, Abruzzo;;False
2120;Città Sant'Angelo;Abruzzo;14874;42.51220877050487;14.062094852541744;Città Sant'Angelo, Abruzzo;;False
2130;Civita d'Antino;Abruzzo;947;41.88642009440035;13.476869995935765;Civita d'Antino, Abruzzo;;False
2132;Civitaluparella;Abruzzo;281;41.95351075336806;14.28568596808635;Civitaluparella, Abruzzo;;False
2135;Civitaquana;Abruzzo;1138;42.33956856307167;13.920701481268248;Civitaquana, Abruzzo;;False
2137;Civitella Alfedena;Abruzzo;289;41.776705635889385;13.911797354786914;Civitella Alfedena, Abruzzo;;False
2138;Civitella Casanova;Abruzzo;1549;42.37896430497629;13.883203973140263;Civitella Casanova, Abruzzo;;False
2143;Civitella Messer Raimondo;Abruzzo;758;42.08093549874004;14.221580843448782;Civitella Messer Raimondo, Abruzzo;;False
2145;Civitella Roveto;Abruzzo;3015;41.89688238041196;13.410394488202051;Civitella Roveto, Abruzzo;;False
2140;Civitella del Tronto;Abruzzo;4533;42.77940046855645;13.6596368666054;Civitella del Tronto, Abruzzo;;False
2163;Cocullo;Abruzzo;204;42.033887176455835;13.771431952362688;Cocullo, Abruzzo;;False
2184;Collarmele;Abruzzo;776;42.06107862327642;13.642861836210288;Collarmele, Abruzzo;;False
2196;Collecorvino;Abruzzo;5980;42.46434388276938;14.040084952161472;Collecorvino, Abruzzo;;False
2197;Colledara;Abruzzo;2063;42.55181149807427;13.686608036235423;Colledara, Abruzzo;;False
2198;Colledimacine;Abruzzo;151;41.999496561036175;14.206237838232871;Colledimacine, Abruzzo;;False
2199;Colledimezzo;Abruzzo;416;41.98958241262089;14.388373709854232;Colledimezzo, Abruzzo;;False
2203;Collelongo;Abruzzo;1064;41.89058599327351;13.572558817745769;Collelongo, Abruzzo;;False
2206;Collepietro;Abruzzo;197;42.21737603237805;13.786520074655844;Collepietro, Abruzzo;;False
2231;Colonnella;Abruzzo;3718;42.86421348210027;13.875556401294627;Colonnella, Abruzzo;;False
2281;Controguerra;Abruzzo;2199;42.85479343659378;13.812984641396984;Controguerra, Abruzzo;;False
2304;Corfinio;Abruzzo;948;42.13572845477424;13.858449546766208;Corfinio, Abruzzo;;False
2335;Corropoli;Abruzzo;5112;42.82743997646538;13.853554503836484;Corropoli, Abruzzo;;False
2358;Cortino;Abruzzo;561;42.62886527892337;13.498079953058754;Cortino, Abruzzo;;False
2360;Corvara;Abruzzo;198;42.27636179035052;13.87017518292678;Corvara, Abruzzo;;False
2404;Crecchio;Abruzzo;2603;42.29294789034538;14.334236116755674;Crecchio, Abruzzo;;False
2430;Crognaleto;Abruzzo;1047;42.56700906637459;13.472433885189796;Crognaleto, Abruzzo;;False
2447;Cugnoli;Abruzzo;1347;42.30918568362282;13.939420523363118;Cugnoli, Abruzzo;;False
2454;Cupello;Abruzzo;4882;42.03861268207657;14.685183243611336;Cupello, Abruzzo;;False
2527;Dogliola;Abruzzo;309;41.94886204448843;14.644035269565292;Dogliola, Abruzzo;;False
2582;Elice;Abruzzo;1627;42.51465434454228;13.979206666931692;Elice, Abruzzo;;False
2635;Fagnano Alto;Abruzzo;333;42.24992612049109;13.582805266676925;Fagnano Alto, Abruzzo;;False
2648;Fallo;Abruzzo;119;41.94771000915218;14.323677182412569;Fallo, Abruzzo;;False
2655;Fano Adriano;Abruzzo;255;42.52570362540348;13.532635838290954;Fano Adriano, Abruzzo;;False
2656;Fara Filiorum Petri;Abruzzo;1989;42.24976244800992;14.174236349119468;Fara Filiorum Petri, Abruzzo;;False
2661;Fara San Martino;Abruzzo;1256;42.092564946272766;14.160112871152544;Fara San Martino, Abruzzo;;False
2665;Farindola;Abruzzo;1288;42.43219327015797;13.813549767015996;Farindola, Abruzzo;;False
2728;Filetto;Abruzzo;821;42.23552586873213;14.244826669767717;Filetto, Abruzzo;;False
2799;Fontecchio;Abruzzo;282;42.22448130152996;13.607306392965349;Fontecchio, Abruzzo;;False
2840;Fossa;Abruzzo;668;42.3029681314252;13.494196181193308;Fossa, Abruzzo;;False
2841;Fossacesia;Abruzzo;6269;42.23280983772153;14.488682480000604;Fossacesia, Abruzzo;;False
2857;Fraine;Abruzzo;247;41.902241471535405;14.491187424319932;Fraine, Abruzzo;;False
2859;Francavilla al Mare;Abruzzo;25443;42.41179297518323;14.27587110315604;Francavilla al Mare, Abruzzo;;False
2890;Fresagrandinaria;Abruzzo;919;41.98476553849341;14.657110549757244;Fresagrandinaria, Abruzzo;;False
2895;Frisa;Abruzzo;1638;42.26656335688449;14.376911735948813;Frisa, Abruzzo;;False
2910;Furci;Abruzzo;787;42.029664939878245;14.606156323184576;Furci, Abruzzo;;False
2931;Gagliano Aterno;Abruzzo;229;42.11690806526098;13.677075871630398;Gagliano Aterno, Abruzzo;;False
2974;Gamberale;Abruzzo;267;41.902393051565625;14.207172580073822;Gamberale, Abruzzo;;False
3049;Gessopalena;Abruzzo;1145;42.05389455950388;14.273250139224675;Gessopalena, Abruzzo;;False
3085;Gioia dei Marsi;Abruzzo;1690;41.91625112812911;13.729528090309138;Gioia dei Marsi, Abruzzo;;False
3096;Gissi;Abruzzo;2432;42.040902846442094;14.55879117144994;Gissi, Abruzzo;;False
3101;Giuliano Teatino;Abruzzo;1117;42.31209732232315;14.28355573861646;Giuliano Teatino, Abruzzo;;False
3102;Giulianova;Abruzzo;23514;42.741038378163545;13.941207370569495;Giulianova, Abruzzo;;False
3134;Goriano Sicoli;Abruzzo;511;42.07197036235743;13.771740826508443;Goriano Sicoli, Abruzzo;;False
3249;Guardiagrele;Abruzzo;8266;42.1857156086265;14.242985556637766;Guardiagrele, Abruzzo;;False
3263;Guilmi;Abruzzo;440;41.99183997569261;14.482100774983367;Guilmi, Abruzzo;;False
3288;Introdacqua;Abruzzo;1924;41.99768108937393;13.893051129785638;Introdacqua, Abruzzo;;False
3312;Isola del Gran Sasso d'Italia;Abruzzo;4428;42.48599049663244;13.638137381345691;Isola del Gran Sasso d'Italia, Abruzzo;;False
3352;L'Aquila;Abruzzo;70421;42.39338796519902;13.424911230496445;L'Aquila, Abruzzo;;True
3390;Lama dei Peligni;Abruzzo;1021;42.05156282096264;14.1809977737719;Lama dei Peligni, Abruzzo;;False
3399;Lanciano;Abruzzo;33900;42.2079358790394;14.400228307248364;Lanciano, Abruzzo;;False
3451;Lecce nei Marsi;Abruzzo;1505;41.894131603314726;13.686088038311896;Lecce nei Marsi, Abruzzo;;False
3470;Lentella;Abruzzo;643;41.997453766735006;14.688564951593774;Lentella, Abruzzo;;False
3492;Lettomanoppello;Abruzzo;2626;42.22735382072653;14.051631426570593;Lettomanoppello, Abruzzo;;False
3493;Lettopalena;Abruzzo;306;41.99878400347303;14.162085888017314;Lettopalena, Abruzzo;;False
3528;Liscia;Abruzzo;643;41.95326708055701;14.552495800600576;Liscia, Abruzzo;;False
3588;Loreto Aprutino;Abruzzo;7024;42.411551402603614;13.974413253377111;Loreto Aprutino, Abruzzo;;False
3610;Luco dei Marsi;Abruzzo;5888;41.955048993952886;13.477115900488918;Luco dei Marsi, Abruzzo;;False
3611;Lucoli;Abruzzo;842;42.25095798206074;13.3723983213674;Lucoli, Abruzzo;;False
3678;Magliano de' Marsi;Abruzzo;3445;42.12640299062517;13.337090297681511;Magliano de' Marsi, Abruzzo;;False
3744;Manoppello;Abruzzo;6751;42.27980609197023;14.065119205094984;Manoppello, Abruzzo;;False
3824;Martinsicuro;Abruzzo;16416;42.86630986365705;13.911371255644989;Martinsicuro, Abruzzo;;False
3853;Massa d'Albe;Abruzzo;1328;42.12107127804512;13.422404883783038;Massa d'Albe, Abruzzo;;False
3981;Miglianico;Abruzzo;4591;42.35769172630112;14.28580805158293;Miglianico, Abruzzo;;False
4049;Molina Aterno;Abruzzo;334;42.15000682547612;13.7480897341961;Molina Aterno, Abruzzo;;False
4161;Montazzoli;Abruzzo;794;41.95870573382825;14.4318756434587;Montazzoli, Abruzzo;;False
4195;Montebello di Bertona;Abruzzo;825;42.417735016905;13.861781409531684;Montebello di Bertona, Abruzzo;;False
4197;Montebello sul Sangro;Abruzzo;81;41.98660076812973;14.322923245637348;Montebello sul Sangro, Abruzzo;;False
4237;Monteferrante;Abruzzo;102;41.93824329209008;14.387758450460987;Monteferrante, Abruzzo;;False
4239;Montefino;Abruzzo;923;42.55631530258824;13.892423908071189;Montefino, Abruzzo;;False
4267;Montelapiano;Abruzzo;67;41.967829767868906;14.330876097856526;Montelapiano, Abruzzo;;False
4302;Montenerodomo;Abruzzo;574;41.97166208105643;14.234929817912317;Montenerodomo, Abruzzo;;False
4303;Monteodorisio;Abruzzo;2341;42.09442911099429;14.650237786549576;Monteodorisio, Abruzzo;;False
4309;Montereale;Abruzzo;2181;42.5301537864011;13.228034240661872;Montereale, Abruzzo;;False
4334;Montesilvano;Abruzzo;53556;42.49337919442796;14.141828690700857;Montesilvano, Abruzzo;;False
4366;Montorio al Vomano;Abruzzo;7383;42.585410962505335;13.628746058898043;Montorio al Vomano, Abruzzo;;False
4404;Morino;Abruzzo;1277;41.842695055779046;13.442893285945551;Morino, Abruzzo;;False
4416;Morro d'Oro;Abruzzo;3554;42.65619911938618;13.9343279614285;Morro d'Oro, Abruzzo;;False
4428;Mosciano Sant'Angelo;Abruzzo;9207;42.7419451318648;13.887711324075276;Mosciano Sant'Angelo, Abruzzo;;False
4429;Moscufo;Abruzzo;3137;42.43206505178519;14.0670427449361;Moscufo, Abruzzo;;False
4446;Mozzagrogna;Abruzzo;2438;42.197410369054055;14.449775950343993;Mozzagrogna, Abruzzo;;False
4491;Navelli;Abruzzo;567;42.23756105144221;13.731947508085568;Navelli, Abruzzo;;False
4504;Nereto;Abruzzo;5380;42.8180909778549;13.81206529789633;Nereto, Abruzzo;;False
4533;Nocciano;Abruzzo;1699;42.339256351004266;13.998041063657343;Nocciano, Abruzzo;;False
4560;Notaresco;Abruzzo;6324;42.66069007746671;13.886229714532996;Notaresco, Abruzzo;;False
4608;Ocre;Abruzzo;1082;42.27926138219631;13.466846732502294;Ocre, Abruzzo;;False
4613;Ofena;Abruzzo;445;42.3319600751347;13.757279117438427;Ofena, Abruzzo;;False
4668;Opi;Abruzzo;372;41.77156113453195;13.854501941387872;Opi, Abruzzo;;False
4684;Oricola;Abruzzo;1286;42.06666072378916;13.04360417601718;Oricola, Abruzzo;;False
4706;Orsogna;Abruzzo;3623;42.22766696347992;14.29074816182465;Orsogna, Abruzzo;;False
4717;Ortona;Abruzzo;21973;42.336973154136366;14.372608810162792;Ortona, Abruzzo;;False
4718;Ortona dei Marsi;Abruzzo;378;42.00112050947583;13.72910144088809;Ortona dei Marsi, Abruzzo;;False
4720;Ortucchio;Abruzzo;1719;41.9487681350744;13.62035244182949;Ortucchio, Abruzzo;;False
4770;Ovindoli;Abruzzo;1174;42.133455049880126;13.514262713816867;Ovindoli, Abruzzo;;False
4781;Pacentro;Abruzzo;1064;42.05497511681286;14.02742140115848;Pacentro, Abruzzo;;False
4801;Paglieta;Abruzzo;4130;42.16934038369699;14.49030088474202;Paglieta, Abruzzo;;False
4828;Palena;Abruzzo;1206;41.95802053432307;14.129139753656125;Palena, Abruzzo;;False
4845;Palmoli;Abruzzo;841;41.95517298949763;14.599348172939155;Palmoli, Abruzzo;;False
4848;Palombaro;Abruzzo;945;42.125593379816856;14.219843474284051;Palombaro, Abruzzo;;False
4948;Penna Sant'Andrea;Abruzzo;1633;42.58543311303933;13.766026356755686;Penna Sant'Andrea, Abruzzo;;False
4950;Pennadomo;Abruzzo;206;42.00452001407896;14.32082178751967;Pennadomo, Abruzzo;;False
4951;Pennapiedimonte;Abruzzo;384;42.143206550840006;14.16651483317272;Pennapiedimonte, Abruzzo;;False
4952;Penne;Abruzzo;11055;42.467624914970024;13.906648180424432;Penne, Abruzzo;;False
4954;Perano;Abruzzo;1457;42.10772938730439;14.394758616821468;Perano, Abruzzo;;False
4961;Pereto;Abruzzo;638;42.05225361737573;13.128594892565472;Pereto, Abruzzo;;False
4986;Pescara;Abruzzo;118419;42.45600107571348;14.20326204457626;Pescara, Abruzzo;;False
4988;Pescasseroli;Abruzzo;2041;41.80956849675003;13.791160044135934;Pescasseroli, Abruzzo;;False
4995;Pescina;Abruzzo;3652;42.01034477351589;13.645825766210343;Pescina, Abruzzo;;False
4997;Pescocostanzo;Abruzzo;1090;41.91847722152449;14.056534252535856;Pescocostanzo, Abruzzo;;False
5002;Pescosansonesco;Abruzzo;438;42.24647848819016;13.871397248763987;Pescosansonesco, Abruzzo;;False
5025;Pettorano sul Gizio;Abruzzo;1273;41.96737572839588;13.947056565618825;Pettorano sul Gizio, Abruzzo;;False
5043;Pianella;Abruzzo;8544;42.39240133458174;14.057064763771072;Pianella, Abruzzo;;False
5067;Picciano;Abruzzo;1284;42.47773051017378;13.985547206770052;Picciano, Abruzzo;;False
5085;Pietracamela;Abruzzo;201;42.49761318083806;13.543096664923764;Pietracamela, Abruzzo;;False
5089;Pietraferrazzana;Abruzzo;128;41.972655368324126;14.37911433950823;Pietraferrazzana, Abruzzo;;False
5095;Pietranico;Abruzzo;419;42.28342754669521;13.913774310972649;Pietranico, Abruzzo;;False
5141;Pineto;Abruzzo;14800;42.60791477074853;14.040671544026193;Pineto, Abruzzo;;False
5177;Pizzoferrato;Abruzzo;954;41.9254238176193;14.23386504829218;Pizzoferrato, Abruzzo;;False
5178;Pizzoli;Abruzzo;4324;42.450319621735915;13.332367599334075;Pizzoli, Abruzzo;;False
5203;Poggio Picenze;Abruzzo;1016;42.31699612714838;13.540512672763096;Poggio Picenze, Abruzzo;;False
5212;Poggiofiorito;Abruzzo;773;42.24861466833526;14.328393540747005;Poggiofiorito, Abruzzo;;False
5242;Pollutri;Abruzzo;2043;42.13410441572487;14.596645103551324;Pollutri, Abruzzo;;False
5312;Popoli;Abruzzo;4599;42.17103948951016;13.838727421291871;Popoli, Abruzzo;;False
5399;Prata d'Ansidonia;Abruzzo;423;42.27336102611182;13.620017364816611;Prata d'Ansidonia, Abruzzo;;False
5409;Pratola Peligna;Abruzzo;6938;42.09908917893024;13.8970099101815;Pratola Peligna, Abruzzo;;False
5440;Pretoro;Abruzzo;861;42.203759671567234;14.132111887353478;Pretoro, Abruzzo;;False
5442;Prezza;Abruzzo;821;42.057682335612384;13.83647499500257;Prezza, Abruzzo;;False
5474;Quadri;Abruzzo;681;41.92689592483475;14.27181569456154;Quadri, Abruzzo;;False
5517;Raiano;Abruzzo;2618;42.10002020041107;13.809756390807026;Raiano, Abruzzo;;False
5527;Rapino;Abruzzo;1151;42.19998314849065;14.169960718217798;Rapino, Abruzzo;;False
5617;Ripa Teatina;Abruzzo;3880;42.36432842937001;14.247301623561334;Ripa Teatina, Abruzzo;;False
5651;Rivisondoli;Abruzzo;661;41.86289226982687;14.04386512955764;Rivisondoli, Abruzzo;;False
5689;Rocca Pia;Abruzzo;166;41.90533101491916;13.98715656182626;Rocca Pia, Abruzzo;;False
5694;Rocca San Giovanni;Abruzzo;2303;42.26270953381565;14.461733230331076;Rocca San Giovanni, Abruzzo;;False
5695;Rocca Santa Maria;Abruzzo;450;42.67358798890441;13.492604502354428;Rocca Santa Maria, Abruzzo;;False
5680;Rocca di Botte;Abruzzo;867;42.02183515302261;13.114719363829415;Rocca di Botte, Abruzzo;;False
5681;Rocca di Cambio;Abruzzo;522;42.229286063565986;13.473842342811672;Rocca di Cambio, Abruzzo;;False
5683;Rocca di Mezzo;Abruzzo;1335;42.196855418745045;13.508974183720046;Rocca di Mezzo, Abruzzo;;False
5703;Roccacasale;Abruzzo;576;42.129298122404066;13.89067260626724;Roccacasale, Abruzzo;;False
5720;Roccamontepiano;Abruzzo;1544;42.25525547959136;14.13389690163421;Roccamontepiano, Abruzzo;;False
5721;Roccamorice;Abruzzo;849;42.18958277066784;14.065583718917551;Roccamorice, Abruzzo;;False
5727;Roccaraso;Abruzzo;1488;41.83732716445148;14.078206504363491;Roccaraso, Abruzzo;;False
5729;Roccascalegna;Abruzzo;1017;42.06732732287192;14.321842773597147;Roccascalegna, Abruzzo;;False
5734;Roccaspinalveti;Abruzzo;1136;41.930117453129014;14.465423029711618;Roccaspinalveti, Abruzzo;;False
5771;Roio del Sangro;Abruzzo;100;41.91124805546575;14.374210383185089;Roio del Sangro, Abruzzo;;False
5820;Rosciano;Abruzzo;4091;42.33413207446926;14.04509980766934;Rosciano, Abruzzo;;False
5823;Rosello;Abruzzo;167;41.89421266572083;14.350705123548444;Rosello, Abruzzo;;False
5825;Roseto degli Abruzzi;Abruzzo;25916;42.68110237304419;13.979454655774244;Roseto degli Abruzzi, Abruzzo;;False
5936;Salle;Abruzzo;260;42.1531240945798;13.943727644464332;Salle, Abruzzo;;False
5974;San Benedetto dei Marsi;Abruzzo;3701;42.00650924360455;13.602046155199996;San Benedetto dei Marsi, Abruzzo;;False
5976;San Benedetto in Perillis;Abruzzo;100;42.17986360551975;13.774644169855042;San Benedetto in Perillis, Abruzzo;;False
5988;San Buono;Abruzzo;851;41.992692540305654;14.579035095295962;San Buono, Abruzzo;;False
6022;San Demetrio ne' Vestini;Abruzzo;1987;42.283493203340825;13.555540116649324;San Demetrio ne' Vestini, Abruzzo;;False
6099;San Giovanni Lipioni;Abruzzo;134;41.84388170296679;14.568753543585656;San Giovanni Lipioni, Abruzzo;;False
6103;San Giovanni Teatino;Abruzzo;14563;42.412931341294744;14.18600049764238;San Giovanni Teatino, Abruzzo;;False
6168;San Martino sulla Marrucina;Abruzzo;860;42.228237191133424;14.218945105649118;San Martino sulla Marrucina, Abruzzo;;False
6240;San Pio delle Camere;Abruzzo;649;42.29036826861186;13.649240246302533;San Pio delle Camere, Abruzzo;;False
6262;San Salvo;Abruzzo;19881;42.04658856682276;14.752512489963802;San Salvo, Abruzzo;;False
6281;San Valentino in Abruzzo Citeriore;Abruzzo;1800;42.231445036020666;13.982042986151106;San Valentino in Abruzzo Citeriore, Abruzzo;;False
6288;San Vincenzo Valle Roveto;Abruzzo;2064;41.83327532554837;13.52869750060932;San Vincenzo Valle Roveto, Abruzzo;;False
6293;San Vito Chietino;Abruzzo;5146;42.29289625239815;14.432880008454775;San Vito Chietino, Abruzzo;;False
6378;Sant'Egidio alla Vibrata;Abruzzo;9880;42.81793383988765;13.710268586929864;Sant'Egidio alla Vibrata, Abruzzo;;False
6385;Sant'Eufemia a Maiella;Abruzzo;245;42.104997166075286;14.03567231255476;Sant'Eufemia a Maiella, Abruzzo;;False
6388;Sant'Eusanio Forconese;Abruzzo;364;42.28343908905267;13.515533309100364;Sant'Eusanio Forconese, Abruzzo;;False
6387;Sant'Eusanio del Sangro;Abruzzo;2247;42.15733428123042;14.356732780911054;Sant'Eusanio del Sangro, Abruzzo;;False
6393;Sant'Omero;Abruzzo;5152;42.78888643914806;13.821591245744957;Sant'Omero, Abruzzo;;False
6439;Santa Maria Imbaro;Abruzzo;2000;42.21603067657016;14.456735110208816;Santa Maria Imbaro, Abruzzo;;False
6460;Sante Marie;Abruzzo;1077;42.118657168665656;13.21053110660078;Sante Marie, Abruzzo;;False
6473;Santo Stefano di Sessanio;Abruzzo;105;42.37564762203581;13.64697809497182;Santo Stefano di Sessanio, Abruzzo;;False
6543;Scafa;Abruzzo;3427;42.25487445322322;13.990018501757428;Scafa, Abruzzo;;False
6559;Scanno;Abruzzo;1687;41.876767292514046;13.900975806478026;Scanno, Abruzzo;;False
6570;Scerni;Abruzzo;2938;42.0981745209688;14.585212323831849;Scerni, Abruzzo;;False
6573;Schiavi di Abruzzo;Abruzzo;618;41.804834114817005;14.485757212936992;Schiavi di Abruzzo, Abruzzo;;False
6589;Scontrone;Abruzzo;540;41.76316822244021;14.054501122900067;Scontrone, Abruzzo;;False
6592;Scoppito;Abruzzo;3824;42.36048820127003;13.221334357844231;Scoppito, Abruzzo;;False
6596;Scurcola Marsicana;Abruzzo;2671;42.05749830876085;13.352699991649908;Scurcola Marsicana, Abruzzo;;False
6600;Secinaro;Abruzzo;299;42.15656645908421;13.644388147461996;Secinaro, Abruzzo;;False
6677;Serramonacesca;Abruzzo;506;42.238148013810424;14.09636502772479;Serramonacesca, Abruzzo;;False
6751;Silvi;Abruzzo;15440;42.55285457751613;14.096524451437132;Silvi, Abruzzo;;False
6892;Spoltore;Abruzzo;18997;42.44053664419511;14.138521027919069;Spoltore, Abruzzo;;False
6955;Sulmona;Abruzzo;21696;42.06553900608824;13.934392981446482;Sulmona, Abruzzo;;False
6976;Tagliacozzo;Abruzzo;6418;42.06587137192372;13.25511721730522;Tagliacozzo, Abruzzo;;False
6991;Taranta Peligna;Abruzzo;296;42.0353672103333;14.146358517284726;Taranta Peligna, Abruzzo;;False
7033;Teramo;Abruzzo;51539;42.65827345702519;13.710667526005652;Teramo, Abruzzo;;False
7090;Tione degli Abruzzi;Abruzzo;252;42.19170551832406;13.642065799889288;Tione degli Abruzzi, Abruzzo;;False
7102;Tocco da Casauria;Abruzzo;2346;42.19576587911856;13.911941979161211;Tocco da Casauria, Abruzzo;;False
7110;Tollo;Abruzzo;3849;42.34463562553866;14.318491047752952;Tollo, Abruzzo;;False
7121;Torano Nuovo;Abruzzo;1447;42.82204828620873;13.776453290205026;Torano Nuovo, Abruzzo;;False
7131;Torino di Sangro;Abruzzo;2890;42.19703164453744;14.54680456735298;Torino di Sangro, Abruzzo;;False
7135;Tornareccio;Abruzzo;1630;42.02946574863863;14.423196247231308;Tornareccio, Abruzzo;;False
7137;Tornimparte;Abruzzo;2716;42.28542515040764;13.277286733884628;Tornimparte, Abruzzo;;False
7157;Torre de' Passeri;Abruzzo;2838;42.2523763994485;13.933446907914368;Torre de' Passeri, Abruzzo;;False
7174;Torrebruna;Abruzzo;650;41.865758793657456;14.53640062012106;Torrebruna, Abruzzo;;False
7183;Torrevecchia Teatina;Abruzzo;4217;42.39351081052555;14.23295351101463;Torrevecchia Teatina, Abruzzo;;False
7191;Torricella Peligna;Abruzzo;1119;42.020175874716955;14.26710616009072;Torricella Peligna, Abruzzo;;False
7192;Torricella Sicura;Abruzzo;2389;42.66644283342871;13.60239164851946;Torricella Sicura, Abruzzo;;False
7203;Tortoreto;Abruzzo;12016;42.79898485918056;13.909358598624111;Tortoreto, Abruzzo;;False
7207;Tossicia;Abruzzo;1194;42.54923202498597;13.635847467283272;Tossicia, Abruzzo;;False
7224;Trasacco;Abruzzo;5768;41.95060422881202;13.538985269539095;Trasacco, Abruzzo;;False
7246;Treglio;Abruzzo;1711;42.26576853313688;14.423193506452732;Treglio, Abruzzo;;False
7321;Tufillo;Abruzzo;329;41.91921142593563;14.628302838399476;Tufillo, Abruzzo;;False
7335;Turrivalignani;Abruzzo;807;42.26534694601327;14.025367699615998;Turrivalignani, Abruzzo;;False
7378;Vacri;Abruzzo;1473;42.29198246609936;14.231909048483711;Vacri, Abruzzo;;False
7444;Valle Castellana;Abruzzo;834;42.72889486657619;13.502090128127527;Valle Castellana, Abruzzo;;False
7523;Vasto;Abruzzo;40826;42.120956856678056;14.694584044094512;Vasto, Abruzzo;;False
7638;Vicoli;Abruzzo;375;42.34341116551666;13.891958048170288;Vicoli, Abruzzo;;False
7681;Villa Celiera;Abruzzo;535;42.38389457167675;13.84566743979485;Villa Celiera, Abruzzo;;False
7704;Villa Sant'Angelo;Abruzzo;503;42.26559279174086;13.535699281174647;Villa Sant'Angelo, Abruzzo;;False
7707;Villa Santa Lucia degli Abruzzi;Abruzzo;83;42.3358905064463;13.786308769080776;Villa Santa Lucia degli Abruzzi, Abruzzo;;False
7708;Villa Santa Maria;Abruzzo;1093;41.969441883025446;14.352699046053573;Villa Santa Maria, Abruzzo;;False
7730;Villalago;Abruzzo;487;41.934942968459616;13.821785576520426;Villalago, Abruzzo;;False
7732;Villalfonsina;Abruzzo;867;42.17600166875743;14.569497493653705;Villalfonsina, Abruzzo;;False
7734;Villamagna;Abruzzo;2136;42.32948834035303;14.23518707417058;Villamagna, Abruzzo;;False
7784;Villavallelonga;Abruzzo;820;41.83928716737802;13.66444303642318;Villavallelonga, Abruzzo;;False
7790;Villetta Barrea;Abruzzo;597;41.799052271451366;13.934217973770876;Villetta Barrea, Abruzzo;;False
7823;Vittorito;Abruzzo;811;42.13507231439469;13.806893290496946;Vittorito, Abruzzo;;False
8;Abriola;Basilicata;1220;40.51876512706693;15.79283682918849;Abriola, Basilicata;;False
12;Accettura;Basilicata;1572;40.491244907348175;16.151590332867137;Accettura, Basilicata;;False
15;Acerenza;Basilicata;2038;40.80229029558038;15.947970372730568;Acerenza, Basilicata;;False
103;Albano di Lucania;Basilicata;1290;40.60245373451946;16.036409735967858;Albano di Lucania, Basilicata;;False
153;Aliano;Basilicata;838;40.30537798377066;16.253499781807754;Aliano, Basilicata;;False
265;Anzi;Basilicata;1484;40.53042608914304;15.916345370973495;Anzi, Basilicata;;False
338;Armento;Basilicata;542;40.30378208397534;16.070131867811746;Armento, Basilicata;;False
392;Atella;Basilicata;3605;40.87701832545279;15.627379914593;Atella, Basilicata;;False
421;Avigliano;Basilicata;10488;40.77045570874551;15.757440342967982;Avigliano, Basilicata;;False
491;Balvano;Basilicata;1656;40.661235227316446;15.528319715761382;Balvano, Basilicata;;False
496;Banzi;Basilicata;1155;40.895205061577265;16.031004881343044;Banzi, Basilicata;;False
499;Baragiano;Basilicata;2467;40.69451503466229;15.598561400521607;Baragiano, Basilicata;;False
538;Barile;Basilicata;2540;40.95169310246872;15.697526304824075;Barile, Basilicata;;False
597;Bella;Basilicata;4601;40.74886473336072;15.60001601026744;Bella, Basilicata;;False
646;Bernalda;Basilicata;11882;40.40917349836461;16.762255977125648;Bernalda, Basilicata;;False
914;Brienza;Basilicata;3862;40.479253803621965;15.60924686123174;Brienza, Basilicata;;False
920;Brindisi Montagna;Basilicata;768;40.601850417491;15.920635788875224;Brindisi Montagna, Basilicata;;False
1059;Calciano;Basilicata;647;40.58084141110212;16.18205469486723;Calciano, Basilicata;;False
1099;Calvello;Basilicata;1752;40.4477550343597;15.861211572824018;Calvello, Basilicata;;False
1102;Calvera;Basilicata;352;40.15197902130561;16.151778524145648;Calvera, Basilicata;;False
1185;Campomaggiore;Basilicata;696;40.5659720487604;16.08714770675486;Campomaggiore, Basilicata;;False
1207;Cancellara;Basilicata;1118;40.726269980385354;15.92274750193723;Cancellara, Basilicata;;False
1336;Carbone;Basilicata;487;40.13366049480164;16.073076849351057;Carbone, Basilicata;;False
1637;Castelgrande;Basilicata;801;40.792720689070826;15.43212637722989;Castelgrande, Basilicata;;False
1694;Castelluccio Inferiore;Basilicata;1878;40.01354981491016;16.011590192631527;Castelluccio Inferiore, Basilicata;;False
1695;Castelluccio Superiore;Basilicata;706;40.0265570032552;15.962109258461116;Castelluccio Superiore, Basilicata;;False
1701;Castelmezzano;Basilicata;697;40.53152283546106;16.02325478021154;Castelmezzano, Basilicata;;False
1738;Castelsaraceno;Basilicata;1136;40.16281715491931;15.973907102745562;Castelsaraceno, Basilicata;;False
1803;Castronuovo di Sant'Andrea;Basilicata;856;40.182452570987955;16.173998474681383;Castronuovo di Sant'Andrea, Basilicata;;False
1954;Cersosimo;Basilicata;508;40.038022924577035;16.373850197711775;Cersosimo, Basilicata;;False
2019;Chiaromonte;Basilicata;1692;40.09126054375082;16.205299295356607;Chiaromonte, Basilicata;;False
2096;Cirigliano;Basilicata;269;40.41829614779194;16.158823614081737;Cirigliano, Basilicata;;False
2224;Colobraro;Basilicata;1038;40.20568051103693;16.40736239995463;Colobraro, Basilicata;;False
2313;Corleto Perticara;Basilicata;2299;40.398425624549816;16.035845172041558;Corleto Perticara, Basilicata;;False
2398;Craco;Basilicata;585;40.369728031534855;16.431303069819688;Craco, Basilicata;;False
2596;Episcopia;Basilicata;1253;40.076680301703405;16.09577219177613;Episcopia, Basilicata;;False
2663;Fardella;Basilicata;574;40.07499987886849;16.155018775777553;Fardella, Basilicata;;False
2694;Ferrandina;Basilicata;7910;40.478133072214874;16.429717039039556;Ferrandina, Basilicata;;False
2729;Filiano;Basilicata;2644;40.8296859156268;15.734065404655468;Filiano, Basilicata;;False
2811;Forenza;Basilicata;1756;40.85676679181704;15.854611086832024;Forenza, Basilicata;;False
2865;Francavilla in Sinni;Basilicata;3849;40.05080075224963;16.21966574983597;Francavilla in Sinni, Basilicata;;False
2956;Gallicchio;Basilicata;762;40.29053620218694;16.13411303172124;Gallicchio, Basilicata;;False
2982;Garaguso;Basilicata;900;40.55023836521523;16.246849262895;Garaguso, Basilicata;;False
3032;Genzano di Lucania;Basilicata;5117;40.84772039558363;16.11880791115294;Genzano di Lucania, Basilicata;;False
3081;Ginestra;Basilicata;664;40.92037751101733;15.745802323081204;Ginestra, Basilicata;;False
3132;Gorgoglione;Basilicata;832;40.383508676613985;16.156332350061586;Gorgoglione, Basilicata;;False
3170;Grassano;Basilicata;4574;40.626814223853515;16.280039122487175;Grassano, Basilicata;;False
3221;Grottole;Basilicata;1951;40.63268412792143;16.377751452949653;Grottole, Basilicata;;False
3227;Grumento Nova;Basilicata;1528;40.29396911206731;15.881108349682538;Grumento Nova, Basilicata;;False
3246;Guardia Perticara;Basilicata;509;40.35818346563167;16.10933121182967;Guardia Perticara, Basilicata;;False
3298;Irsina;Basilicata;4346;40.74599720114804;16.250778776690083;Irsina, Basilicata;;False
3378;Lagonegro;Basilicata;4963;40.157705788995045;15.77661966983824;Lagonegro, Basilicata;;False
3427;Latronico;Basilicata;3997;40.08392377536903;16.012162612818084;Latronico, Basilicata;;False
3433;Laurenzana;Basilicata;1549;40.45335421140227;15.978788999855045;Laurenzana, Basilicata;;False
3434;Lauria;Basilicata;11708;40.07023154963599;15.883149517880682;Lauria, Basilicata;;False
3442;Lavello;Basilicata;12863;41.07547303325447;15.839381307518993;Lavello, Basilicata;;False
3766;Maratea;Basilicata;4574;39.99678145549076;15.728924384326964;Maratea, Basilicata;;False
3812;Marsico Nuovo;Basilicata;3736;40.42408764084486;15.732507600469487;Marsico Nuovo, Basilicata;;False
3813;Marsicovetere;Basilicata;5677;40.379150877013714;15.82237735073554;Marsicovetere, Basilicata;;False
3841;Maschito;Basilicata;1434;40.91852070890886;15.84773800428142;Maschito, Basilicata;;False
3875;Matera;Basilicata;59586;40.66979612719769;16.578672003555504;Matera, Basilicata;;False
3912;Melfi;Basilicata;16962;41.034551162179866;15.641408873668238;Melfi, Basilicata;;False
3983;Miglionico;Basilicata;2371;40.57716116863654;16.499155182193025;Miglionico, Basilicata;;False
4021;Missanello;Basilicata;468;40.3008250754185;16.1670051607729;Missanello, Basilicata;;False
4055;Moliterno;Basilicata;3482;40.216243077033475;15.853219534730952;Moliterno, Basilicata;;False
4135;Montalbano Jonico;Basilicata;6539;40.30397019387045;16.57519755818272;Montalbano Jonico, Basilicata;;False
4293;Montemilone;Basilicata;1376;41.0262395674963;15.96566546207706;Montemilone, Basilicata;;False
4297;Montemurro;Basilicata;1037;40.31439128584608;15.996194824960618;Montemurro, Basilicata;;False
4327;Montescaglioso;Basilicata;9210;40.50720610336782;16.666977062455818;Montescaglioso, Basilicata;;False
4466;Muro Lucano;Basilicata;4871;40.73566270214176;15.467744621365698;Muro Lucano, Basilicata;;False
4501;Nemoli;Basilicata;1390;40.08283458064148;15.809583897305188;Nemoli, Basilicata;;False
4541;Noepoli;Basilicata;729;40.0973280549907;16.33070825707153;Noepoli, Basilicata;;False
4565;Nova Siri;Basilicata;6876;40.14424390239368;16.56960353887962;Nova Siri, Basilicata;;False
4641;Oliveto Lucano;Basilicata;348;40.530109991323926;16.187166534341795;Oliveto Lucano, Basilicata;;False
4670;Oppido Lucano;Basilicata;3516;40.76427258868705;16.034942883355935;Oppido Lucano, Basilicata;;False
4822;Palazzo San Gervasio;Basilicata;4298;40.91161661899994;15.952349474291823;Palazzo San Gervasio, Basilicata;;False
4902;Paterno;Basilicata;2973;40.36068643408806;15.741261655109245;Paterno, Basilicata;;False
4999;Pescopagano;Basilicata;1614;40.84289168926371;15.41297075128888;Pescopagano, Basilicata;;False
5068;Picerno;Basilicata;5598;40.64227528003976;15.639022391323048;Picerno, Basilicata;;False
5091;Pietragalla;Basilicata;3766;40.75646155042893;15.85179474075708;Pietragalla, Basilicata;;False
5097;Pietrapertosa;Basilicata;854;40.487512381451005;16.077431360724606;Pietrapertosa, Basilicata;;False
5131;Pignola;Basilicata;6838;40.577844237370314;15.78945297043393;Pignola, Basilicata;;False
5168;Pisticci;Basilicata;16707;40.362457357636;16.65434104140842;Pisticci, Basilicata;;False
5229;Policoro;Basilicata;17743;40.19668681147964;16.668060496039047;Policoro, Basilicata;;False
5249;Pomarico;Basilicata;3726;40.49231475579508;16.561857784466767;Pomarico, Basilicata;;False
5361;Potenza;Basilicata;63839;40.65928767671992;15.806742043316891;Potenza, Basilicata;;True
5529;Rapolla;Basilicata;4110;40.98612256113239;15.70677478274384;Rapolla, Basilicata;;False
5530;Rapone;Basilicata;820;40.85533752632444;15.496422680136186;Rapone, Basilicata;;False
5615;Rionero in Vulture;Basilicata;12442;40.92421949371077;15.615985321355964;Rionero in Vulture, Basilicata;;False
5619;Ripacandida;Basilicata;1542;40.89769919413949;15.728928435364276;Ripacandida, Basilicata;;False
5648;Rivello;Basilicata;2459;40.08153554084958;15.736177499996296;Rivello, Basilicata;;False
5722;Roccanova;Basilicata;1258;40.22776372133972;16.209004267958992;Roccanova, Basilicata;;False
5842;Rotonda;Basilicata;3131;39.93191284729811;16.05507189998452;Rotonda, Basilicata;;False
5843;Rotondella;Basilicata;2353;40.181263942280005;16.55660587673557;Rotondella, Basilicata;;False
5880;Ruoti;Basilicata;3197;40.70111673336547;15.691449764223806;Ruoti, Basilicata;;False
5885;Ruvo del Monte;Basilicata;961;40.87331078854175;15.540357029552574;Ruvo del Monte, Basilicata;;False
5913;Salandra;Basilicata;2451;40.54317694828448;16.318980774292033;Salandra, Basilicata;;False
6000;San Chirico Nuovo;Basilicata;1109;40.67170675177604;16.06909360648177;San Chirico Nuovo, Basilicata;;False
6001;San Chirico Raparo;Basilicata;881;40.20279402871497;16.075714121305495;San Chirico Raparo, Basilicata;;False
6012;San Costantino Albanese;Basilicata;591;40.0430392116795;16.280571990677394;San Costantino Albanese, Basilicata;;False
6031;San Fele;Basilicata;2524;40.81384632217826;15.592749121776144;San Fele, Basilicata;;False
6077;San Giorgio Lucano;Basilicata;1002;40.10980046276939;16.389457512697014;San Giorgio Lucano, Basilicata;;False
6155;San Martino d'Agri;Basilicata;638;40.24536729382192;16.05167507542265;San Martino d'Agri, Basilicata;;False
6179;San Mauro Forte;Basilicata;1203;40.471623620671224;16.282588153735784;San Mauro Forte, Basilicata;;False
6207;San Paolo Albanese;Basilicata;211;40.018874620828456;16.34489414456163;San Paolo Albanese, Basilicata;;False
6268;San Severino Lucano;Basilicata;1349;40.011290566527485;16.170621907526193;San Severino Lucano, Basilicata;;False
6360;Sant'Angelo Le Fratte;Basilicata;1315;40.54306199227236;15.565098632872022;Sant'Angelo Le Fratte, Basilicata;;False
6374;Sant'Arcangelo;Basilicata;5908;40.24951816531405;16.31057544293838;Sant'Arcangelo, Basilicata;;False
6492;Sarconi;Basilicata;1426;40.22886571327032;15.910281790538162;Sarconi, Basilicata;;False
6518;Sasso di Castalda;Basilicata;717;40.489063005487566;15.694044306133655;Sasso di Castalda, Basilicata;;False
6525;Satriano di Lucania;Basilicata;2238;40.54229344401095;15.635785574978785;Satriano di Lucania, Basilicata;;False
6541;Savoia di Lucania;Basilicata;986;40.5886722001825;15.585036910999603;Savoia di Lucania, Basilicata;;False
6562;Scanzano Jonico;Basilicata;7501;40.26215657783099;16.70777364917679;Scanzano Jonico, Basilicata;;False
6642;Senise;Basilicata;6425;40.15747979665274;16.30908000044009;Senise, Basilicata;;False
6889;Spinoso;Basilicata;1296;40.24287918069739;15.96108166820349;Spinoso, Basilicata;;False
6920;Stigliano;Basilicata;3441;40.376954957855034;16.300037435616147;Stigliano, Basilicata;;False
7017;Teana;Basilicata;505;40.12715329116758;16.150547020116576;Teana, Basilicata;;False
7054;Terranova di Pollino;Basilicata;984;39.96103269608022;16.2790707006303;Terranova di Pollino, Basilicata;;False
7097;Tito;Basilicata;7017;40.57600327150947;15.685442294407224;Tito, Basilicata;;False
7112;Tolve;Basilicata;2878;40.70473951883182;16.040728430399078;Tolve, Basilicata;;False
7217;Tramutola;Basilicata;2849;40.318635174520914;15.778066985565465;Tramutola, Basilicata;;False
7243;Trecchina;Basilicata;2076;40.02057059898479;15.775453577674654;Trecchina, Basilicata;;False
7286;Tricarico;Basilicata;4674;40.64542060508742;16.149434483412154;Tricarico, Basilicata;;False
7306;Trivigno;Basilicata;599;40.56604383838423;15.983573605724274;Trivigno, Basilicata;;False
7336;Tursi;Basilicata;4717;40.25552421404454;16.486972273982847;Tursi, Basilicata;;False
7383;Vaglio Basilicata;Basilicata;1795;40.67177298200814;15.921853524566234;Vaglio Basilicata, Basilicata;;False
7487;Valsinni;Basilicata;1306;40.15806102585429;16.449942843326806;Valsinni, Basilicata;;False
7556;Venosa;Basilicata;10662;40.98293001944745;15.837942663002917;Venosa, Basilicata;;False
7647;Vietri di Potenza;Basilicata;2611;40.61008762806955;15.52249561670932;Vietri di Potenza, Basilicata;;False
7654;Viggianello;Basilicata;2611;39.97458348167513;16.107972697793997;Viggianello, Basilicata;;False
7655;Viggiano;Basilicata;3216;40.355461098657784;15.905340306638433;Viggiano, Basilicata;;False
24;Acquaformosa;Calabria;951;39.72514815703585;16.087246676208952;Acquaformosa, Calabria;;False
30;Acquappesa;Calabria;1745;39.49402008287061;15.993033362671998;Acquappesa, Calabria;;False
31;Acquaro;Calabria;1803;38.53437512160864;16.203832871542875;Acquaro, Calabria;;False
41;Acri;Calabria;18360;39.494451193977405;16.42846697742707;Acri, Calabria;;False
52;Africo;Calabria;2683;38.0727078846151;15.97841430073878;Africo, Calabria;;False
63;Agnana Calabra;Calabria;453;38.30616549998632;16.23025377046112;Agnana Calabra, Calabria;;False
79;Aiello Calabro;Calabria;1332;39.113708767794286;16.17461495672741;Aiello Calabro, Calabria;;False
82;Aieta;Calabria;727;39.91607664892176;15.846040273962585;Aieta, Calabria;;False
119;Albi;Calabria;766;39.04543853749055;16.60186410790649;Albi, Calabria;;False
123;Albidona;Calabria;1076;39.92506688992163;16.487887830829727;Albidona, Calabria;;False
141;Alessandria del Carretto;Calabria;352;39.9649351827678;16.392056415585092;Alessandria del Carretto, Calabria;;False
187;Altilia;Calabria;683;39.127159907964526;16.257284161633056;Altilia, Calabria;;False
195;Altomonte;Calabria;3995;39.684829432412414;16.175872572738598;Altomonte, Calabria;;False
209;Amantea;Calabria;13841;39.10196073347422;16.09414328471225;Amantea, Calabria;;False
211;Amaroni;Calabria;1636;38.79232674672939;16.443818521824873;Amaroni, Calabria;;False
213;Amato;Calabria;785;38.94365179807034;16.450087443487764;Amato, Calabria;;False
219;Amendolara;Calabria;2617;39.9577313699177;16.557615376444886;Amendolara, Calabria;;False
227;Andali;Calabria;596;38.987994268615914;16.807041749706425;Andali, Calabria;;False
252;Anoia;Calabria;2002;38.44350820856955;16.06961499587606;Anoia, Calabria;;False
259;Antonimina;Calabria;1161;38.28187452055265;16.157335074580928;Antonimina, Calabria;;False
281;Aprigliano;Calabria;2329;39.216066999138285;16.467484264203584;Aprigliano, Calabria;;False
314;Ardore;Calabria;4855;38.19775778025649;16.169064448948692;Ardore, Calabria;;False
315;Arena;Calabria;1181;38.53657533843333;16.257653104950673;Arena, Calabria;;False
325;Argusto;Calabria;410;38.68073081933164;16.437425305796328;Argusto, Calabria;;False
447;Badolato;Calabria;2800;38.569558696426995;16.51108217600272;Badolato, Calabria;;False
448;Bagaladi;Calabria;935;38.04945912408712;15.81400607446338;Bagaladi, Calabria;;False
451;Bagnara Calabra;Calabria;9164;38.28144995489471;15.816848842096888;Bagnara Calabra, Calabria;;False
590;Belcastro;Calabria;1212;38.98866801506007;16.843834200015017;Belcastro, Calabria;;False
611;Belmonte Calabro;Calabria;1694;39.17370283884011;16.09760346708989;Belmonte Calabro, Calabria;;False
618;Belsito;Calabria;893;39.17330198578825;16.28179191138069;Belsito, Calabria;;False
621;Belvedere Marittimo;Calabria;9052;39.63957542200784;15.872554966713505;Belvedere Marittimo, Calabria;;False
619;Belvedere di Spinello;Calabria;1900;39.20611763219924;16.911752955814197;Belvedere di Spinello, Calabria;;False
628;Benestare;Calabria;2494;38.16726395720505;16.131703689047583;Benestare, Calabria;;False
673;Bianchi;Calabria;1152;39.102755622617394;16.432406204944233;Bianchi, Calabria;;False
674;Bianco;Calabria;4284;38.07445228992524;16.131009556920812;Bianco, Calabria;;False
704;Bisignano;Calabria;9421;39.521522197518365;16.27224369499021;Bisignano, Calabria;;False
712;Bivongi;Calabria;1168;38.500161077946814;16.434550769702696;Bivongi, Calabria;;False
724;Bocchigliero;Calabria;1025;39.3997405519455;16.727807613742602;Bocchigliero, Calabria;;False
764;Bonifati;Calabria;2515;39.57403636803983;15.916092086721973;Bonifati, Calabria;;False
786;Borgia;Calabria;7187;38.8210616312284;16.54190437587094;Borgia, Calabria;;False
856;Botricello;Calabria;5000;38.93867286482821;16.850990428196628;Botricello, Calabria;;False
861;Bova;Calabria;452;38.003294271381804;15.95484665699946;Bova, Calabria;;False
862;Bova Marina;Calabria;3979;37.945580553694974;15.941277031350268;Bova Marina, Calabria;;False
863;Bovalino;Calabria;8698;38.15351995852589;16.158395081955764;Bovalino, Calabria;;False
880;Brancaleone;Calabria;3170;37.96945119876215;16.07242736237862;Brancaleone, Calabria;;False
911;Briatico;Calabria;3588;38.70218813198622;16.020598800499627;Briatico, Calabria;;False
932;Brognaturo;Calabria;726;38.586509342933894;16.387373124330754;Brognaturo, Calabria;;False
959;Bruzzano Zeffirio;Calabria;1015;38.02049925911533;16.06812674397752;Bruzzano Zeffirio, Calabria;;False
985;Buonvicino;Calabria;1986;39.67977556764629;15.89401065309582;Buonvicino, Calabria;;False
1019;Caccuri;Calabria;1520;39.211855199490415;16.807931882218135;Caccuri, Calabria;;False
1049;Calanna;Calabria;738;38.19107173418123;15.724544666172116;Calanna, Calabria;;False
1084;Calopezzati;Calabria;1228;39.55723832622208;16.79362367952603;Calopezzati, Calabria;;False
1086;Caloveto;Calabria;1079;39.51288309574452;16.76616378953123;Caloveto, Calabria;;False
1128;Camini;Calabria;805;38.42566413604034;16.51675530490581;Camini, Calabria;;False
1141;Campana;Calabria;1381;39.39784339837912;16.829725394638984;Campana, Calabria;;False
1155;Campo Calabro;Calabria;4462;38.218008434729725;15.668545248194734;Campo Calabro, Calabria;;False
1216;Candidoni;Calabria;413;38.51537747103945;16.017560291139496;Candidoni, Calabria;;False
1227;Canna;Calabria;597;40.090486466547866;16.511826853438414;Canna, Calabria;;False
1235;Canolo;Calabria;687;38.32066835865891;16.18162678350467;Canolo, Calabria;;False
1267;Capistrano;Calabria;932;38.69818307790751;16.302720711214928;Capistrano, Calabria;;False
1316;Caraffa del Bianco;Calabria;433;38.06851567412626;16.100876346898346;Caraffa del Bianco, Calabria;;False
1317;Caraffa di Catanzaro;Calabria;1688;38.87439905745912;16.50744638578738;Caraffa di Catanzaro, Calabria;;False
1344;Cardeto;Calabria;1269;38.091434191347595;15.80368055319142;Cardeto, Calabria;;False
1345;Cardinale;Calabria;1745;38.63507424080744;16.402261726825703;Cardinale, Calabria;;False
1352;Careri;Calabria;2070;38.1831809543913;16.06634953124767;Careri, Calabria;;False
1356;Carfizzi;Calabria;503;39.32384324318299;16.995298265984747;Carfizzi, Calabria;;False
1358;Cariati;Calabria;7576;39.48786338339857;16.952134775025833;Cariati, Calabria;;False
1372;Carlopoli;Calabria;1329;39.04772985984101;16.443310943750177;Carlopoli, Calabria;;False
1380;Carolei;Calabria;3073;39.2516547073992;16.21040979014769;Carolei, Calabria;;False
1389;Carpanzano;Calabria;186;39.146253540361506;16.326654306663457;Carpanzano, Calabria;;False
1421;Casabona;Calabria;2201;39.24392047248193;16.95265648843023;Casabona, Calabria;;False
1457;Casali del Manco;Calabria;9341;39.295819978483586;16.47510987934077;Casali del Manco, Calabria;;False
1513;Casignana;Calabria;682;38.11668223525949;16.103104630164346;Casignana, Calabria;;False
1533;Cassano all'Ionio;Calabria;16284;39.75200029698206;16.391115643693933;Cassano all'Ionio, Calabria;;False
1741;Castelsilano;Calabria;899;39.259453941674735;16.82807684356643;Castelsilano, Calabria;;False
1764;Castiglione Cosentino;Calabria;2710;39.363443045124086;16.283581797140776;Castiglione Cosentino, Calabria;;False
1800;Castrolibero;Calabria;9137;39.310447448201735;16.20527467733033;Castrolibero, Calabria;;False
1806;Castroregio;Calabria;210;39.99316306533932;16.453416794551213;Castroregio, Calabria;;False
1807;Castrovillari;Calabria;20566;39.81154779345324;16.236960828707485;Castrovillari, Calabria;;False
1809;Catanzaro;Calabria;83247;38.889938667940115;16.6025325629924;Catanzaro, Calabria;;True
1814;Caulonia;Calabria;6675;38.394560484797296;16.400058267309383;Caulonia, Calabria;;False
1865;Celico;Calabria;2462;39.3880593609096;16.445012099504446;Celico, Calabria;;False
1869;Cellara;Calabria;482;39.214491437037296;16.35082842839149;Cellara, Calabria;;False
1884;Cenadi;Calabria;496;38.73370150005658;16.39046614656059;Cenadi, Calabria;;False
1894;Centrache;Calabria;346;38.73733193952068;16.434753961098846;Centrache, Calabria;;False
1910;Cerchiara di Calabria;Calabria;2093;39.854316243502915;16.38063285935167;Cerchiara di Calabria, Calabria;;False
1918;Cerenzia;Calabria;1001;39.25440569286474;16.821386440843455;Cerenzia, Calabria;;False
1932;Cerisano;Calabria;2921;39.279899816957474;16.160630479935275;Cerisano, Calabria;;False
1957;Cerva;Calabria;1034;39.01658711783074;16.750937400319774;Cerva, Calabria;;False
1968;Cervicati;Calabria;768;39.54974327680808;16.167099249381913;Cervicati, Calabria;;False
1974;Cerzeto;Calabria;1220;39.508092473160566;16.116912217179273;Cerzeto, Calabria;;False
1989;Cessaniti;Calabria;2882;38.67801095848321;16.032960176929663;Cessaniti, Calabria;;False
1995;Cetraro;Calabria;9300;39.53658672791877;15.967863180666686;Cetraro, Calabria;;False
2017;Chiaravalle Centrale;Calabria;5064;38.69030263666976;16.393110409157924;Chiaravalle Centrale, Calabria;;False
2061;Cicala;Calabria;838;39.02120541760935;16.480068471858612;Cicala, Calabria;;False
2075;Ciminà;Calabria;512;38.26050938536301;16.11831987302916;Ciminà, Calabria;;False
2087;Cinquefrondi;Calabria;6232;38.41041355222439;16.134156171024607;Cinquefrondi, Calabria;;False
2099;Cirò;Calabria;2374;39.38373521220038;17.045219374556975;Cirò, Calabria;;False
2100;Cirò Marina;Calabria;14134;39.365524687045536;17.108736239086127;Cirò Marina, Calabria;;False
2115;Cittanova;Calabria;9605;38.36071580528206;16.073700334293818;Cittanova, Calabria;;False
2128;Civita;Calabria;797;39.84887716945966;16.310579912765665;Civita, Calabria;;False
2154;Cleto;Calabria;1277;39.07716979819232;16.1535961775234;Cleto, Calabria;;False
2235;Colosimi;Calabria;1099;39.12720174256027;16.437447499293476;Colosimi, Calabria;;False
2268;Condofuri;Calabria;4490;37.97980603292302;15.879246260204656;Condofuri, Calabria;;False
2274;Conflenti;Calabria;1319;39.04506331492701;16.27980630066169;Conflenti, Calabria;;False
2308;Corigliano-Rossano;Calabria;74002;39.60654862200888;16.55386223561095;Corigliano-Rossano, Calabria;;False
2340;Cortale;Calabria;1825;38.828055441717474;16.40506500883042;Cortale, Calabria;;False
2365;Cosenza;Calabria;63241;39.27848777028313;16.271300815785313;Cosenza, Calabria;;False
2368;Cosoleto;Calabria;752;38.2351194005354;15.9068274605696;Cosoleto, Calabria;;False
2393;Cotronei;Calabria;5138;39.17209734294324;16.71877473808599;Cotronei, Calabria;;False
2431;Cropalati;Calabria;973;39.522935524888574;16.719975701863078;Cropalati, Calabria;;False
2432;Cropani;Calabria;4847;38.95527202723054;16.786601398499567;Cropani, Calabria;;False
2433;Crosia;Calabria;9636;39.58691712877129;16.778809461838968;Crosia, Calabria;;False
2435;Crotone;Calabria;58181;39.09291462653304;17.08828336138308;Crotone, Calabria;;False
2439;Crucoli;Calabria;2744;39.43088415058302;17.000402367718994;Crucoli, Calabria;;False
2461;Curinga;Calabria;6425;38.82816323685228;16.281702185948927;Curinga, Calabria;;False
2475;Cutro;Calabria;9222;39.00151688241431;16.983644747871214;Cutro, Calabria;;False
2484;Dasà;Calabria;1073;38.565358678762905;16.176912338035628;Dasà, Calabria;;False
2487;Davoli;Calabria;5718;38.648773818025155;16.491994274669153;Davoli, Calabria;;False
2491;Decollatura;Calabria;2808;39.0457085096644;16.365181279886368;Decollatura, Calabria;;False
2496;Delianuova;Calabria;3037;38.219929264645224;15.921608532026896;Delianuova, Calabria;;False
2510;Diamante;Calabria;5000;39.70037870868958;15.823018718786775;Diamante, Calabria;;False
2519;Dinami;Calabria;1683;38.54450786945502;16.150478200261727;Dinami, Calabria;;False
2520;Dipignano;Calabria;4049;39.24081125950499;16.239118363031498;Dipignano, Calabria;;False
2536;Domanico;Calabria;934;39.2030069017657;16.198239941814972;Domanico, Calabria;;False
2560;Drapia;Calabria;2131;38.648372384585585;15.911594309556287;Drapia, Calabria;;False
2626;Fabrizia;Calabria;1930;38.47608340448356;16.28995815484021;Fabrizia, Calabria;;False
2636;Fagnano Castello;Calabria;3287;39.55573672338882;16.048402531669886;Fagnano Castello, Calabria;;False
2642;Falconara Albanese;Calabria;1484;39.27574225009948;16.093789728749208;Falconara Albanese, Calabria;;False
2646;Falerna;Calabria;3902;38.99899844705772;16.168147203416627;Falerna, Calabria;;False
2692;Feroleto Antico;Calabria;1950;38.943473249748045;16.36711424597654;Feroleto Antico, Calabria;;False
2693;Feroleto della Chiesa;Calabria;1505;38.46912967820171;16.065308477491786;Feroleto della Chiesa, Calabria;;False
2702;Ferruzzano;Calabria;713;38.02812336769512;16.09933700870524;Ferruzzano, Calabria;;False
2721;Figline Vegliaturo;Calabria;1094;39.22406604093762;16.31942310443942;Figline Vegliaturo, Calabria;;False
2723;Filadelfia;Calabria;5007;38.78973978691224;16.31109239635568;Filadelfia, Calabria;;False
2725;Filandari;Calabria;1751;38.62068712884494;16.02500788383838;Filandari, Calabria;;False
2732;Filogaso;Calabria;1324;38.68200890229262;16.225969474459937;Filogaso, Calabria;;False
2744;Firmo;Calabria;1797;39.71843922336461;16.18245681336033;Firmo, Calabria;;False
2749;Fiumara;Calabria;829;38.21603742830565;15.699744363762653;Fiumara, Calabria;;False
2752;Fiumefreddo Bruzio;Calabria;3865;39.24010728552204;16.098559171335456;Fiumefreddo Bruzio, Calabria;;False
2847;Fossato Serralta;Calabria;536;39.00126804400843;16.563639193748873;Fossato Serralta, Calabria;;False
2860;Francavilla Angitola;Calabria;1790;38.77952196530036;16.250181468668824;Francavilla Angitola, Calabria;;False
2866;Francavilla Marittima;Calabria;2732;39.80626665205222;16.385217010469326;Francavilla Marittima, Calabria;;False
2867;Francica;Calabria;1602;38.616278859029954;16.125406210395695;Francica, Calabria;;False
2873;Frascineto;Calabria;1846;39.85067289131727;16.275715473801274;Frascineto, Calabria;;False
2915;Fuscaldo;Calabria;7906;39.43627251056454;16.040502016629333;Fuscaldo, Calabria;;False
2934;Gagliato;Calabria;405;38.67350725128411;16.46056812832235;Gagliato, Calabria;;False
2945;Galatro;Calabria;1389;38.46257997710212;16.165532000742164;Galatro, Calabria;;False
3000;Gasperina;Calabria;1869;38.73706894314497;16.50669723561787;Gasperina, Calabria;;False
3035;Gerace;Calabria;2306;38.27938010980569;16.202937170063244;Gerace, Calabria;;False
3044;Gerocarne;Calabria;1870;38.58588102897963;16.212419517685056;Gerocarne, Calabria;;False
3074;Giffone;Calabria;1560;38.433520930272906;16.15924381386692;Giffone, Calabria;;False
3080;Gimigliano;Calabria;2947;38.98415359948737;16.522638063913984;Gimigliano, Calabria;;False
3088;Gioia Tauro;Calabria;19243;38.42987418926017;15.920778699501366;Gioia Tauro, Calabria;;False
3089;Gioiosa Ionica;Calabria;6761;38.35762819746459;16.31560104987709;Gioiosa Ionica, Calabria;;False
3095;Girifalco;Calabria;5395;38.81129172242021;16.428255245576747;Girifalco, Calabria;;False
3111;Gizzeria;Calabria;5335;38.96572166470248;16.19633564268089;Gizzeria, Calabria;;False
3196;Grimaldi;Calabria;1500;39.135114452927986;16.223136549110514;Grimaldi, Calabria;;False
3199;Grisolia;Calabria;2174;39.72125770398851;15.9150760382792;Grisolia, Calabria;;False
3220;Grotteria;Calabria;2833;38.37627588455544;16.26862240991299;Grotteria, Calabria;;False
3243;Guardavalle;Calabria;4073;38.50716295017994;16.50044618336858;Guardavalle, Calabria;;False
3247;Guardia Piemontese;Calabria;1755;39.487815870981606;16.016464998419885;Guardia Piemontese, Calabria;;False
3295;Ionadi;Calabria;4674;38.63717281397872;16.0627577903128;Ionadi, Calabria;;False
3300;Isca sullo Ionio;Calabria;1473;38.59421824316968;16.509069285319192;Isca sullo Ionio, Calabria;;False
3317;Isola di Capo Rizzuto;Calabria;18320;38.9591066215706;17.084810375147978;Isola di Capo Rizzuto, Calabria;;False
3341;Jacurso;Calabria;511;38.82072211036489;16.36950925373333;Jacurso, Calabria;;False
3349;Joppolo;Calabria;1699;38.59481900684311;15.89542121109358;Joppolo, Calabria;;False
3373;Laganadi;Calabria;328;38.18648595790376;15.75466317211336;Laganadi, Calabria;;False
3377;Lago;Calabria;2374;39.16599299178814;16.15519099497969;Lago, Calabria;;False
3384;Laino Borgo;Calabria;1670;39.96605427669053;15.943088155119414;Laino Borgo, Calabria;;False
3385;Laino Castello;Calabria;755;39.93293038868275;15.95851823074347;Laino Castello, Calabria;;False
3393;Lamezia Terme;Calabria;67168;38.937931018073535;16.27750948856339;Lamezia Terme, Calabria;Nicastro;False
3410;Lappano;Calabria;870;39.32922973847294;16.314655991289307;Lappano, Calabria;;False
3428;Lattarico;Calabria;3691;39.45127284623378;16.17668819345279;Lattarico, Calabria;;False
3431;Laureana di Borrello;Calabria;4543;38.49560629691185;16.064783261832822;Laureana di Borrello, Calabria;;False
3513;Limbadi;Calabria;3212;38.56285051081722;15.979235197423248;Limbadi, Calabria;;False
3551;Locri;Calabria;11848;38.23857810470707;16.239253802475297;Locri, Calabria;;False
3577;Longobardi;Calabria;3142;39.204845736480465;16.089368439501538;Longobardi, Calabria;;False
3578;Longobucco;Calabria;2491;39.45164410918398;16.608101492000916;Longobucco, Calabria;;False
3624;Lungro;Calabria;2065;39.74617625662216;16.111703724635905;Lungro, Calabria;;False
3647;Luzzi;Calabria;8750;39.44945627017158;16.302500412032416;Luzzi, Calabria;;False
3675;Magisano;Calabria;1057;39.026750188785506;16.63757370017105;Magisano, Calabria;;False
3694;Maida;Calabria;4535;38.8795862411902;16.384450198290967;Maida, Calabria;;False
3695;Maierato;Calabria;2121;38.723359741570654;16.221295223573325;Maierato, Calabria;;False
3696;Maierà;Calabria;1103;39.70645880009484;15.869321752847725;Maierà, Calabria;;False
3715;Malito;Calabria;690;39.16645500115325;16.248617271280963;Malito, Calabria;;False
3724;Malvito;Calabria;1598;39.6078201294163;16.05069472123883;Malvito, Calabria;;False
3726;Mammola;Calabria;2376;38.37603257940812;16.213782193744056;Mammola, Calabria;;False
3731;Mandatoriccio;Calabria;2396;39.49781637242921;16.848577537662795;Mandatoriccio, Calabria;;False
3740;Mangone;Calabria;1904;39.20661821476931;16.326030119376874;Mangone, Calabria;;False
3760;Marano Marchesato;Calabria;3348;39.30947070466208;16.164589245855126;Marano Marchesato, Calabria;;False
3761;Marano Principato;Calabria;3045;39.29493227939332;16.158971276624012;Marano Principato, Calabria;;False
3769;Marcedusa;Calabria;357;39.01317854696859;16.859274073585738;Marcedusa, Calabria;;False
3771;Marcellinara;Calabria;2194;38.91227602448121;16.46481375996266;Marcellinara, Calabria;;False
3795;Marina di Gioiosa Ionica;Calabria;6310;38.32086289181304;16.333845184816663;Marina di Gioiosa Ionica, Calabria;;False
3805;Maropati;Calabria;1297;38.44808126380699;16.097747593226885;Maropati, Calabria;;False
3825;Martirano;Calabria;802;39.073154577374176;16.248744184010828;Martirano, Calabria;;False
3826;Martirano Lombardo;Calabria;926;39.060185123358615;16.22567213606064;Martirano Lombardo, Calabria;;False
3828;Martone;Calabria;483;38.39633163887208;16.297130518432795;Martone, Calabria;;False
3835;Marzi;Calabria;945;39.16153798192153;16.33849036363645;Marzi, Calabria;;False
3913;Melicucco;Calabria;4841;38.445697055147285;16.045176854002726;Melicucco, Calabria;;False
3914;Melicuccà;Calabria;793;38.2937527557501;15.869499268884365;Melicuccà, Calabria;;False
3916;Melissa;Calabria;3257;39.30448364653816;17.044092549906782;Melissa, Calabria;;False
3919;Melito di Porto Salvo;Calabria;10400;37.95237725714286;15.785173393198004;Melito di Porto Salvo, Calabria;;False
3930;Mendicino;Calabria;8948;39.25358355435837;16.174477283383283;Mendicino, Calabria;;False
3956;Mesoraca;Calabria;5699;39.060392688065626;16.806514868515233;Mesoraca, Calabria;;False
3982;Miglierina;Calabria;703;38.9709226037556;16.46791777863791;Miglierina, Calabria;;False
3989;Mileto;Calabria;6235;38.5833188452891;16.07861376583537;Mileto, Calabria;;False
4057;Molochio;Calabria;2167;38.30529527347204;16.056142157046327;Molochio, Calabria;;False
4075;Monasterace;Calabria;3246;38.45006290642468;16.559617967461744;Monasterace, Calabria;;False
4105;Mongiana;Calabria;596;38.505485846983966;16.324478760428793;Mongiana, Calabria;;False
4109;Mongrassano;Calabria;1443;39.53067675446519;16.13096909541412;Mongrassano, Calabria;;False
4151;Montalto Uffugo;Calabria;20050;39.40184030860444;16.178040490195947;Montalto Uffugo, Calabria;;False
4160;Montauro;Calabria;1879;38.74901262867877;16.52493076104255;Montauro, Calabria;;False
4196;Montebello Jonico;Calabria;5494;37.9848311192997;15.74582492963801;Montebello Jonico, Calabria;;False
4256;Montegiordano;Calabria;1521;40.04200646523611;16.55520336604942;Montegiordano, Calabria;;False
4304;Montepaone;Calabria;5773;38.72271326262848;16.49828715958887;Montepaone, Calabria;;False
4319;Monterosso Calabro;Calabria;1449;38.725280253321145;16.29247221662782;Monterosso Calabro, Calabria;;False
4379;Morano Calabro;Calabria;3773;39.862751727787376;16.110192097575112;Morano Calabro, Calabria;;False
4407;Mormanno;Calabria;2527;39.87719020832649;15.993847826375289;Mormanno, Calabria;;False
4438;Motta San Giovanni;Calabria;5466;38.00209481976386;15.70337188628489;Motta San Giovanni, Calabria;;False
4440;Motta Santa Lucia;Calabria;807;39.089136019607416;16.303078632760045;Motta Santa Lucia, Calabria;;False
4442;Mottafollone;Calabria;1057;39.650044195198895;16.03258143531123;Mottafollone, Calabria;;False
4482;Nardodipace;Calabria;1016;38.45600091459714;16.349547293400466;Nardodipace, Calabria;;False
4522;Nicotera;Calabria;7120;38.55218944141592;15.939596619924338;Nicotera, Calabria;;False
4532;Nocara;Calabria;297;40.10943064240873;16.46528867314579;Nocara, Calabria;;False
4536;Nocera Terinese;Calabria;4768;39.03349990308015;16.159168120973362;Nocera Terinese, Calabria;;False
4637;Olivadi;Calabria;481;38.73093746784429;16.4184276284046;Olivadi, Calabria;;False
4671;Oppido Mamertina;Calabria;4678;38.28876404337923;15.976994370327578;Oppido Mamertina, Calabria;;False
4690;Oriolo;Calabria;1793;40.04508923717634;16.459831012902878;Oriolo, Calabria;;False
4707;Orsomarso;Calabria;1072;39.800421290864314;15.928543112393363;Orsomarso, Calabria;;False
4829;Palermiti;Calabria;1028;38.7550146680407;16.461550790679613;Palermiti, Calabria;;False
4834;Palizzi;Calabria;1871;37.95604832460292;16.00854079082348;Palizzi, Calabria;;False
4835;Pallagorio;Calabria;905;39.31161730536247;16.905370740695954;Pallagorio, Calabria;;False
4843;Palmi;Calabria;17982;38.37795973412709;15.8728072968156;Palmi, Calabria;;False
4851;Paludi;Calabria;959;39.53195824179371;16.676497331586496;Paludi, Calabria;;False
4860;Panettieri;Calabria;307;39.078272428407395;16.45944539848919;Panettieri, Calabria;;False
4866;Paola;Calabria;15121;39.36156480249535;16.062368923066785;Paola, Calabria;;False
4868;Papasidero;Calabria;591;39.87224807263411;15.908384267005331;Papasidero, Calabria;;False
4875;Parenti;Calabria;1955;39.16055957625222;16.45974991731901;Parenti, Calabria;;False
4878;Parghelia;Calabria;1282;38.68088625008083;15.936604248006615;Parghelia, Calabria;;False
4903;Paterno Calabro;Calabria;1340;39.212796166924385;16.268661178995913;Paterno Calabro, Calabria;;False
4922;Pazzano;Calabria;488;38.46931348821531;16.430918670300905;Pazzano, Calabria;;False
4932;Pedivigliano;Calabria;724;39.1113174522432;16.331802549668545;Pedivigliano, Calabria;;False
4953;Pentone;Calabria;1811;38.97877112006858;16.583679783678754;Pentone, Calabria;;False
5008;Petilia Policastro;Calabria;8492;39.11373928286654;16.77949816778372;Petilia Policastro, Calabria;;False
5017;Petrizzi;Calabria;987;38.700243544421305;16.479308672439878;Petrizzi, Calabria;;False
5018;Petronà;Calabria;2333;39.065118532182126;16.727664752581887;Petronà, Calabria;;False
5042;Piane Crati;Calabria;1302;39.234367428498985;16.316134456426514;Piane Crati, Calabria;;False
5053;Pianopoli;Calabria;2583;38.929662670174345;16.390365758386913;Pianopoli, Calabria;;False
5090;Pietrafitta;Calabria;1125;39.25825182695798;16.345356323644612;Pietrafitta, Calabria;;False
5096;Pietrapaola;Calabria;1004;39.494606910842485;16.789620298277026;Pietrapaola, Calabria;;False
5176;Pizzo;Calabria;8671;38.7560718781741;16.19354317336439;Pizzo, Calabria;;False
5180;Pizzoni;Calabria;939;38.62155589633385;16.24705589528157;Pizzoni, Calabria;;False
5181;Placanica;Calabria;982;38.4244734177351;16.43994986839092;Placanica, Calabria;;False
5182;Plataci;Calabria;644;39.90379432843015;16.42065199565991;Plataci, Calabria;;False
5183;Platania;Calabria;1977;39.01074305286494;16.317943176053973;Platania, Calabria;;False
5184;Platì;Calabria;3639;38.221939064847064;16.065762476074312;Platì, Calabria;;False
5228;Polia;Calabria;789;38.749024304314354;16.319044112519176;Polia, Calabria;;False
5233;Polistena;Calabria;9854;38.41262939920076;16.0598195512126;Polistena, Calabria;;False
5328;Portigliola;Calabria;1019;38.22054111320987;16.212738205985186;Portigliola, Calabria;;False
5386;Praia a Mare;Calabria;6323;39.890994508962;15.802947512019308;Praia a Mare, Calabria;;False
5557;Reggio di Calabria;Calabria;168572;38.11273832449962;15.718003608385892;Reggio di Calabria, Calabria;;False
5565;Rende;Calabria;36819;39.347630200642136;16.21072314728535;Rende, Calabria;;False
5583;Riace;Calabria;1777;38.40477096489008;16.508187061687153;Riace, Calabria;;False
5589;Ricadi;Calabria;5064;38.63598908360775;15.857526775116128;Ricadi, Calabria;;False
5656;Rizziconi;Calabria;7622;38.415269762892486;15.969803497993844;Rizziconi, Calabria;;False
5687;Rocca Imperiale;Calabria;3132;40.09896374085162;16.58021307666507;Rocca Imperiale, Calabria;;False
5684;Rocca di Neto;Calabria;5245;39.188955009074625;17.007837845886634;Rocca di Neto, Calabria;;False
5700;Roccabernarda;Calabria;3088;39.10042082473918;16.885567907101827;Roccabernarda, Calabria;;False
5707;Roccaforte del Greco;Calabria;300;38.08282318748226;15.884602442877602;Roccaforte del Greco, Calabria;;False
5741;Roccella Ionica;Calabria;6113;38.346901400805784;16.37476761508828;Roccella Ionica, Calabria;;False
5764;Roggiano Gravina;Calabria;6746;39.63108213164886;16.16984248052072;Roggiano Gravina, Calabria;;False
5765;Roghudi;Calabria;920;38.07090009141406;15.910510848460587;Roghudi, Calabria;;False
5766;Rogliano;Calabria;5201;39.17738894859987;16.394032278559497;Rogliano, Calabria;;False
5785;Rombiolo;Calabria;4255;38.60639115187056;15.990543676456454;Rombiolo, Calabria;;False
5816;Rosarno;Calabria;14445;38.47086095090722;15.990699965908952;Rosarno, Calabria;;False
5822;Rose;Calabria;4137;39.39782986898153;16.326128177757916;Rose, Calabria;;False
5824;Roseto Capo Spulico;Calabria;1879;39.99726653695286;16.58276916263386;Roseto Capo Spulico, Calabria;;False
5839;Rota Greca;Calabria;910;39.46269914213275;16.102483647315452;Rota Greca, Calabria;;False
5864;Rovito;Calabria;2920;39.309412119744;16.317212865731413;Rovito, Calabria;;False
5960;Samo;Calabria;681;38.10046628188208;15.997944806665105;Samo, Calabria;;False
5969;San Basile;Calabria;910;39.79723737178803;16.184239370895966;San Basile, Calabria;;False
5978;San Benedetto Ullano;Calabria;1357;39.42507312272965;16.114536746015453;San Benedetto Ullano, Calabria;;False
5989;San Calogero;Calabria;3734;38.55439735577851;16.020524006670673;San Calogero, Calabria;;False
6011;San Cosmo Albanese;Calabria;549;39.600990787601845;16.421920478216997;San Cosmo Albanese, Calabria;;False
6013;San Costantino Calabro;Calabria;2024;38.62845149404228;16.085346652004404;San Costantino Calabro, Calabria;;False
6021;San Demetrio Corone;Calabria;2985;39.59543704522369;16.3717844869033;San Demetrio Corone, Calabria;;False
6026;San Donato di Ninea;Calabria;1056;39.72038201048332;16.028920399294595;San Donato di Ninea, Calabria;;False
6037;San Ferdinando;Calabria;4334;38.48385744556192;15.93506811825051;San Ferdinando, Calabria;;False
6040;San Fili;Calabria;2438;39.33452872363927;16.12892789837114;San Fili, Calabria;;False
6045;San Floro;Calabria;686;38.8491550785312;16.51405065061286;San Floro, Calabria;;False
6065;San Giorgio Albanese;Calabria;1304;39.60157925278014;16.46337371123225;San Giorgio Albanese, Calabria;;False
6079;San Giorgio Morgeto;Calabria;2955;38.375059024887314;16.121844983683307;San Giorgio Morgeto, Calabria;;False
6089;San Giovanni di Gerace;Calabria;401;38.39481025470111;16.28249170690962;San Giovanni di Gerace, Calabria;;False
6093;San Giovanni in Fiore;Calabria;15461;39.26776958686761;16.64984386848852;San Giovanni in Fiore, Calabria;;False
6114;San Gregorio d'Ippona;Calabria;2555;38.64713553243264;16.10378914650983;San Gregorio d'Ippona, Calabria;;False
6126;San Lorenzo;Calabria;2129;38.00147280344036;15.834183190146652;San Lorenzo, Calabria;;False
6128;San Lorenzo Bellizzi;Calabria;503;39.90645203378354;16.30299567380179;San Lorenzo Bellizzi, Calabria;;False
6129;San Lorenzo del Vallo;Calabria;3049;39.68458472759874;16.264510445160003;San Lorenzo del Vallo, Calabria;;False
6136;San Luca;Calabria;3326;38.15278897163235;16.007477975389534;San Luca, Calabria;;False
6137;San Lucido;Calabria;7543;39.306977838230246;16.0824396733929;San Lucido, Calabria;;False
6139;San Mango d'Aquino;Calabria;1385;39.059669912491344;16.184156790030737;San Mango d'Aquino, Calabria;;False
6145;San Marco Argentano;Calabria;6818;39.582209018028784;16.16521944981411;San Marco Argentano, Calabria;;False
6158;San Martino di Finita;Calabria;947;39.48159435531528;16.13416572224857;San Martino di Finita, Calabria;;False
6181;San Mauro Marchesato;Calabria;1889;39.08765466845187;16.93275493384204;San Mauro Marchesato, Calabria;;False
6195;San Nicola Arcella;Calabria;1993;39.84914206552923;15.79869613817124;San Nicola Arcella, Calabria;;False
6197;San Nicola da Crissa;Calabria;1195;38.67253585776381;16.294386360678114;San Nicola da Crissa, Calabria;;False
6198;San Nicola dell'Alto;Calabria;681;39.27876539223861;16.9769075094602;San Nicola dell'Alto, Calabria;;False
6220;San Pietro Apostolo;Calabria;1540;38.997965887401755;16.468509765227616;San Pietro Apostolo, Calabria;;False
6217;San Pietro a Maida;Calabria;3789;38.853688813974706;16.326949665005465;San Pietro a Maida, Calabria;;False
6224;San Pietro di Caridà;Calabria;951;38.49080279081916;16.189711883676424;San Pietro di Caridà, Calabria;;False
6227;San Pietro in Amantea;Calabria;455;39.12160545622037;16.110414854265724;San Pietro in Amantea, Calabria;;False
6232;San Pietro in Guarano;Calabria;3322;39.35748298495261;16.351164219081046;San Pietro in Guarano, Calabria;;False
6250;San Procopio;Calabria;468;38.30252421714621;15.90067240618225;San Procopio, Calabria;;False
6255;San Roberto;Calabria;1495;38.207845658348376;15.77646644117864;San Roberto, Calabria;;False
6273;San Sostene;Calabria;1399;38.6190361314928;16.47544721792475;San Sostene, Calabria;;False
6274;San Sosti;Calabria;1859;39.66737564376542;16.037602471916347;San Sosti, Calabria;;False
6287;San Vincenzo La Costa;Calabria;1937;39.36781349978833;16.148145757509393;San Vincenzo La Costa, Calabria;;False
6300;San Vito sullo Ionio;Calabria;1552;38.71469274255974;16.381862954417183;San Vito sullo Ionio, Calabria;;False
6315;Sangineto;Calabria;1202;39.61088542265437;15.912606841872948;Sangineto, Calabria;;False
6326;Sant'Agata del Bianco;Calabria;546;38.0739172889173;16.05714495969041;Sant'Agata del Bianco, Calabria;;False
6327;Sant'Agata di Esaro;Calabria;1687;39.62303891371391;15.974038861347331;Sant'Agata di Esaro, Calabria;;False
6337;Sant'Alessio in Aspromonte;Calabria;309;38.17571440012171;15.76127705124713;Sant'Alessio in Aspromonte, Calabria;;False
6345;Sant'Andrea Apostolo dello Ionio;Calabria;1689;38.61610544827977;16.518103390009514;Sant'Andrea Apostolo dello Ionio, Calabria;;False
6386;Sant'Eufemia d'Aspromonte;Calabria;3659;38.23128577805685;15.848165993736224;Sant'Eufemia d'Aspromonte, Calabria;;False
6390;Sant'Ilario dello Ionio;Calabria;1309;38.21497944239874;16.194631197040593;Sant'Ilario dello Ionio, Calabria;;False
6395;Sant'Onofrio;Calabria;2692;38.6831165819064;16.175055790548054;Sant'Onofrio, Calabria;;False
6400;Santa Caterina Albanese;Calabria;1084;39.59561988978419;16.087087295776858;Santa Caterina Albanese, Calabria;;False
6402;Santa Caterina dello Ionio;Calabria;1907;38.53604891539619;16.523840580422515;Santa Caterina dello Ionio, Calabria;;False
6405;Santa Cristina d'Aspromonte;Calabria;725;38.23855488873218;15.97318027262068;Santa Cristina d'Aspromonte, Calabria;;False
6413;Santa Domenica Talao;Calabria;1132;39.826418430894755;15.845035729469862;Santa Domenica Talao, Calabria;;False
6433;Santa Maria del Cedro;Calabria;5158;39.75349872795761;15.837949211102076;Santa Maria del Cedro, Calabria;;False
6450;Santa Severina;Calabria;1858;39.15582726665714;16.914248994652453;Santa Severina, Calabria;;False
6452;Santa Sofia d'Epiro;Calabria;2110;39.57558675452858;16.303933970946847;Santa Sofia d'Epiro, Calabria;;False
6472;Santo Stefano di Rogliano;Calabria;1737;39.20008318171185;16.38453606722929;Santo Stefano di Rogliano, Calabria;;False
6474;Santo Stefano in Aspromonte;Calabria;1014;38.17215549269245;15.816409153455204;Santo Stefano in Aspromonte, Calabria;;False
6489;Saracena;Calabria;3284;39.78033185651471;16.125788479747214;Saracena, Calabria;;False
6524;Satriano;Calabria;3373;38.65693147901717;16.47356005329504;Satriano, Calabria;;False
6530;Savelli;Calabria;982;39.32556132119857;16.7592468607668;Savelli, Calabria;;False
6547;Scala Coeli;Calabria;754;39.45200227523152;16.89879050760515;Scala Coeli, Calabria;;False
6549;Scalea;Calabria;11568;39.801687006986576;15.804707290503355;Scalea, Calabria;;False
6553;Scandale;Calabria;2839;39.13052191559246;17.00014201616553;Scandale, Calabria;;False
6582;Scido;Calabria;802;38.23170020037077;15.94733068305318;Scido, Calabria;;False
6583;Scigliano;Calabria;1116;39.12726113055316;16.31070557094602;Scigliano, Calabria;;False
6584;Scilla;Calabria;4443;38.231296487375374;15.781416574169482;Scilla, Calabria;;False
6622;Sellia;Calabria;469;38.97642232715728;16.631015255178237;Sellia, Calabria;;False
6623;Sellia Marina;Calabria;7745;38.90901215327801;16.739201068034543;Sellia Marina, Calabria;;False
6632;Seminara;Calabria;2492;38.33868105954952;15.878978855387672;Seminara, Calabria;;False
6667;Serra San Bruno;Calabria;6259;38.557124930830966;16.321895501413124;Serra San Bruno, Calabria;;False
6664;Serra d'Aiello;Calabria;538;39.08624863473807;16.12516471622921;Serra d'Aiello, Calabria;;False
6680;Serrastretta;Calabria;2876;38.98196461469302;16.406941878284204;Serrastretta, Calabria;;False
6681;Serrata;Calabria;794;38.52831020767849;16.08766066522454;Serrata, Calabria;;False
6692;Sersale;Calabria;4149;38.99895741335611;16.715808951493614;Sersale, Calabria;;False
6720;Settingiano;Calabria;3271;38.898730936781185;16.51804103308703;Settingiano, Calabria;;False
6737;Siderno;Calabria;17528;38.28645674240562;16.275896832175082;Siderno, Calabria;;False
6754;Simbario;Calabria;948;38.61721353776628;16.32888624032541;Simbario, Calabria;;False
6755;Simeri Crichi;Calabria;4691;38.90674706173701;16.661673615332706;Simeri Crichi, Calabria;;False
6763;Sinopoli;Calabria;1811;38.23541378197489;15.88545076731886;Sinopoli, Calabria;;False
6826;Sorbo San Basile;Calabria;720;39.05281509938365;16.516917360229773;Sorbo San Basile, Calabria;;False
6835;Sorianello;Calabria;1085;38.59622378935968;16.26255751927924;Sorianello, Calabria;;False
6836;Soriano Calabro;Calabria;2405;38.61685383049772;16.201093133874103;Soriano Calabro, Calabria;;False
6852;Soverato;Calabria;8475;38.69050491347285;16.53211763516035;Soverato, Calabria;;False
6854;Soveria Mannelli;Calabria;2769;39.07118317928681;16.391720081355537;Soveria Mannelli, Calabria;;False
6855;Soveria Simeri;Calabria;1441;38.9284794270493;16.687190770896297;Soveria Simeri, Calabria;;False
6863;Spadola;Calabria;786;38.5868912198672;16.338352094194263;Spadola, Calabria;;False
6872;Spezzano Albanese;Calabria;6471;39.69270196045681;16.315222461748863;Spezzano Albanese, Calabria;;False
6873;Spezzano della Sila;Calabria;4280;39.34893374687565;16.488261908954144;Spezzano della Sila, Calabria;;False
6879;Spilinga;Calabria;1343;38.61568149453828;15.922272598944575;Spilinga, Calabria;;False
6899;Squillace;Calabria;3600;38.78973588702796;16.524427468263823;Squillace, Calabria;;False
6903;Staiti;Calabria;164;38.00441783407281;16.041342384616325;Staiti, Calabria;;False
6904;Stalettì;Calabria;2391;38.76414624910888;16.54624364533796;Stalettì, Calabria;;False
6911;Stefanaconi;Calabria;2253;38.66367468165064;16.15366651627919;Stefanaconi, Calabria;;False
6921;Stignano;Calabria;1151;38.387060430443235;16.486019292309106;Stignano, Calabria;;False
6922;Stilo;Calabria;2291;38.49794858889326;16.435347901723233;Stilo, Calabria;;False
6941;Strongoli;Calabria;6162;39.2410685279631;17.0671445811607;Strongoli, Calabria;;False
6996;Tarsia;Calabria;1827;39.62622395666333;16.272573823148893;Tarsia, Calabria;;False
7003;Taurianova;Calabria;14662;38.36982239674181;15.995077315006268;Taurianova, Calabria;;False
7009;Taverna;Calabria;2476;39.11901666584107;16.574513846010547;Taverna, Calabria;;False
7055;Terranova Sappo Minulio;Calabria;416;38.32988078488507;16.01331375392751;Terranova Sappo Minulio, Calabria;;False
7052;Terranova da Sibari;Calabria;4486;39.662892950658126;16.360294533558026;Terranova da Sibari, Calabria;;False
7059;Terravecchia;Calabria;562;39.46071178967597;16.95379095247102;Terravecchia, Calabria;;False
7094;Tiriolo;Calabria;3488;38.936717542349534;16.52037950199486;Tiriolo, Calabria;;False
7120;Torano Castello;Calabria;4257;39.5057569003547;16.180819734124047;Torano Castello, Calabria;;False
7162;Torre di Ruggiero;Calabria;932;38.65905334411436;16.358308139802965;Torre di Ruggiero, Calabria;;False
7201;Tortora;Calabria;5930;39.96468361262837;15.828319640714929;Tortora, Calabria;;False
7238;Trebisacce;Calabria;8639;39.88005072192782;16.521374038096894;Trebisacce, Calabria;;False
7316;Tropea;Calabria;5661;38.67179201614464;15.891773111928629;Tropea, Calabria;;False
7351;Umbriatico;Calabria;708;39.359344738932634;16.93704753748469;Umbriatico, Calabria;;False
7376;Vaccarizzo Albanese;Calabria;1019;39.58740546027449;16.435950093606028;Vaccarizzo Albanese, Calabria;;False
7457;Vallefiorita;Calabria;1433;38.77226064230595;16.437232227232837;Vallefiorita, Calabria;;False
7460;Vallelonga;Calabria;815;38.64926642486618;16.300118132238346;Vallelonga, Calabria;;False
7508;Varapodio;Calabria;2037;38.30882315838615;15.996393392202204;Varapodio, Calabria;;False
7526;Vazzano;Calabria;924;38.64188324625124;16.244321127047225;Vazzano, Calabria;;False
7566;Verbicaro;Calabria;2532;39.75998382868946;15.935148136314073;Verbicaro, Calabria;;False
7603;Verzino;Calabria;1537;39.30714250030203;16.844450851881952;Verzino, Calabria;;False
7628;Vibo Valentia;Calabria;30913;38.68249401161141;16.093603109921013;Vibo Valentia, Calabria;;False
7700;Villa San Giovanni;Calabria;12674;38.22879653766604;15.66652753422458;Villa San Giovanni, Calabria;;False
7763;Villapiana;Calabria;5521;39.830550811385734;16.474736336978808;Villapiana, Calabria;;False
7860;Zaccanopoli;Calabria;639;38.661211091301034;15.94387664092382;Zaccanopoli, Calabria;;False
7862;Zagarise;Calabria;1365;39.01755363676888;16.67234789142577;Zagarise, Calabria;;False
7864;Zambrone;Calabria;1758;38.69278530035025;15.972046283104362;Zambrone, Calabria;;False
7906;Zumpano;Calabria;2594;39.31595738376093;16.27616340594869;Zumpano, Calabria;;False
7908;Zungri;Calabria;1813;38.645755521091154;15.985051765076973;Zungri, Calabria;;False
16;Acerno;Campania;2464;40.74142386948843;15.064741971798204;Acerno, Campania;;False
17;Acerra;Campania;58535;40.965758731977004;14.387460718303094;Acerra, Campania;;False
51;Afragola;Campania;61449;40.926032672611846;14.32615938576823;Afragola, Campania;;False
54;Agerola;Campania;7770;40.64096089078618;14.54368954612066;Agerola, Campania;;False
72;Agropoli;Campania;21283;40.3511616512757;15.0084341044555;Agropoli, Campania;;False
81;Aiello del Sabato;Campania;4031;40.880219416206586;14.813384744939734;Aiello del Sabato, Campania;;False
83;Ailano;Campania;1139;41.383848964708214;14.19075077997798;Ailano, Campania;;False
86;Airola;Campania;8102;41.05747512713229;14.564247632887996;Airola, Campania;;False
102;Albanella;Campania;6311;40.49267018842814;15.096830283612052;Albanella, Campania;;False
145;Alfano;Campania;910;40.17647172781139;15.427848761584864;Alfano, Campania;;False
156;Alife;Campania;7311;41.32334672844531;14.33378958086399;Alife, Campania;;False
181;Altavilla Irpina;Campania;3848;41.00041109319258;14.787011395685068;Altavilla Irpina, Campania;;False
184;Altavilla Silentina;Campania;7032;40.52815760486074;15.12258827536313;Altavilla Silentina, Campania;;False
199;Alvignano;Campania;4439;41.243082611352065;14.358005324642807;Alvignano, Campania;;False
207;Amalfi;Campania;4611;40.634415679419256;14.58374799067381;Amalfi, Campania;;False
221;Amorosi;Campania;2637;41.20260611404673;14.46587270966214;Amorosi, Campania;;False
223;Anacapri;Campania;6766;40.549371058736405;14.213110011048633;Anacapri, Campania;;False
236;Andretta;Campania;1638;40.9421888200852;15.326404524335208;Andretta, Campania;;False
245;Angri;Campania;34136;40.74121849127283;14.56801323908982;Angri, Campania;;False
271;Apice;Campania;5221;41.12879601360164;14.957168924879802;Apice, Campania;;False
273;Apollosa;Campania;2446;41.09059183443752;14.703670594543324;Apollosa, Campania;;False
283;Aquara;Campania;1265;40.4492528375924;15.25179640298392;Aquara, Campania;;False
286;Aquilonia;Campania;1394;40.979070082858286;15.492316053062384;Aquilonia, Campania;;False
327;Ariano Irpino;Campania;20690;41.168665157689766;15.111053878996096;Ariano Irpino, Campania;;False
331;Arienzo;Campania;5373;41.0272373396406;14.508685490373791;Arienzo, Campania;;False
348;Arpaia;Campania;1979;41.032490135150184;14.548663910262686;Arpaia, Campania;;False
349;Arpaise;Campania;718;41.02248621853773;14.74899813025976;Arpaise, Campania;;False
370;Arzano;Campania;31782;40.91348620021516;14.267089036568487;Arzano, Campania;;False
373;Ascea;Campania;5846;40.15764132810917;15.195808052858784;Ascea, Campania;;False
393;Atena Lucana;Campania;2380;40.45776826857568;15.55113552035378;Atena Lucana, Campania;;False
396;Atrani;Campania;764;40.63663159911792;14.607443330316116;Atrani, Campania;;False
398;Atripalda;Campania;10267;40.91269962610416;14.837483326824756;Atripalda, Campania;;False
403;Auletta;Campania;2143;40.55475697743645;15.421197867554602;Auletta, Campania;;False
412;Avella;Campania;7444;40.97604194744943;14.613562400511428;Avella, Campania;;False
413;Avellino;Campania;51910;40.91387982870497;14.7881787249033;Avellino, Campania;;False
415;Aversa;Campania;49295;40.97123241148892;14.207043987524257;Aversa, Campania;;False
439;Bacoli;Campania;24960;40.81585709138471;14.0649674008023;Bacoli, Campania;;False
462;Bagnoli Irpino;Campania;2992;40.807802184079215;15.096363542424616;Bagnoli Irpino, Campania;;False
473;Baia e Latina;Campania;1975;41.30305823125734;14.261663763443917;Baia e Latina, Campania;;False
474;Baiano;Campania;4376;40.93585778332027;14.631270895384572;Baiano, Campania;;False
501;Barano d'Ischia;Campania;10015;40.71644846460536;13.923741900007984;Barano d'Ischia, Campania;;False
545;Baronissi;Campania;16859;40.740400210426714;14.779487612863552;Baronissi, Campania;;False
559;Baselice;Campania;2018;41.391303587188936;14.940186960799393;Baselice, Campania;;False
576;Battipaglia;Campania;49395;40.594351317934674;14.955181794189862;Battipaglia, Campania;;False
606;Bellizzi;Campania;13299;40.62006018672273;14.93994617405109;Bellizzi, Campania;;False
607;Bellona;Campania;6022;41.146327098543104;14.23842186068763;Bellona, Campania;;False
608;Bellosguardo;Campania;679;40.41831900220987;15.305023297426333;Bellosguardo, Campania;;False
631;Benevento;Campania;55645;41.14913002662122;14.782893132553587;Benevento, Campania;;False
699;Bisaccia;Campania;3519;41.00815172115984;15.364826554046802;Bisaccia, Campania;;False
761;Bonea;Campania;1378;41.07882965847433;14.610732773706026;Bonea, Campania;;False
765;Bonito;Campania;2181;41.08806670701709;14.988721522825903;Bonito, Campania;;False
848;Boscoreale;Campania;25741;40.779281038601766;14.506217700094382;Boscoreale, Campania;;False
849;Boscotrecase;Campania;9833;40.784469489575315;14.454121931307638;Boscotrecase, Campania;;False
877;Bracigliano;Campania;5291;40.82627287026235;14.707428794617504;Bracigliano, Campania;;False
954;Brusciano;Campania;15971;40.92639061331624;14.421947996743356;Brusciano, Campania;;False
964;Bucciano;Campania;1976;41.08285039296952;14.579015609099503;Bucciano, Campania;;False
966;Buccino;Campania;4473;40.627399745331786;15.362649194508949;Buccino, Campania;;False
982;Buonabitacolo;Campania;2431;40.282664491687655;15.623410612669224;Buonabitacolo, Campania;;False
983;Buonalbergo;Campania;1500;41.2178898144901;14.97405716933309;Buonalbergo, Campania;;False
1029;Caggiano;Campania;2479;40.561152526138834;15.495024718543451;Caggiano, Campania;;False
1035;Caianello;Campania;1836;41.29950205663478;14.081838470202957;Caianello, Campania;;False
1036;Caiazzo;Campania;5068;41.18313341769994;14.372674912503662;Caiazzo, Campania;;False
1040;Cairano;Campania;288;40.89498771206346;15.371835160176287;Cairano, Campania;;False
1043;Caivano;Campania;35922;40.97335497543622;14.319149957501423;Caivano, Campania;;False
1044;Calabritto;Campania;2124;40.7763621446002;15.188880523202126;Calabritto, Campania;;False
1078;Calitri;Campania;4127;40.923171743561504;15.446721199644823;Calitri, Campania;;False
1097;Calvanico;Campania;1399;40.77936046319781;14.844970572123918;Calvanico, Campania;;False
1103;Calvi;Campania;2490;41.08616339287551;14.899615945696809;Calvi, Campania;;False
1105;Calvi Risorta;Campania;5405;41.20822700213279;14.12635096216841;Calvi Risorta, Campania;;False
1109;Calvizzano;Campania;12582;40.90925388313575;14.177081337996702;Calvizzano, Campania;;False
1126;Camerota;Campania;6774;40.03688124097086;15.37680181377668;Camerota, Campania;;False
1127;Camigliano;Campania;1963;41.18165287368665;14.217661198587532;Camigliano, Campania;;False
1135;Campagna;Campania;17060;40.66312878454172;15.12666623214639;Campagna, Campania;;False
1179;Campolattaro;Campania;968;41.289421058743784;14.736968247663166;Campolattaro, Campania;;False
1181;Campoli del Monte Taburno;Campania;1677;41.113957599914016;14.659085969243588;Campoli del Monte Taburno, Campania;;False
1189;Campora;Campania;311;40.2951297457526;15.309578774478473;Campora, Campania;;False
1196;Camposano;Campania;5017;40.95326430600911;14.525616282528928;Camposano, Campania;;False
1208;Cancello ed Arnone;Campania;5709;41.061775777428544;14.027720802636402;Cancello ed Arnone, Campania;;False
1215;Candida;Campania;1095;40.946383464114106;14.873385476766908;Candida, Campania;;False
1228;Cannalonga;Campania;945;40.249672096478214;15.320580473784055;Cannalonga, Campania;;False
1258;Capaccio Paestum;Campania;22412;40.44442708131481;15.027546484502006;Capaccio Paestum, Campania;;False
1275;Capodrise;Campania;10001;41.04363467238747;14.302244033805293;Capodrise, Campania;;False
1280;Caposele;Campania;3236;40.8200895476331;15.237078903893105;Caposele, Campania;;False
1299;Capri;Campania;6749;40.552255929044335;14.24540051889328;Capri, Campania;;False
1305;Capriati a Volturno;Campania;1387;41.47815780137916;14.132417694531398;Capriati a Volturno, Campania;;False
1307;Capriglia Irpina;Campania;2186;40.95654340146818;14.77838335685218;Capriglia Irpina, Campania;;False
1314;Capua;Campania;17914;41.115174720834354;14.210074880724006;Capua, Campania;;False
1333;Carbonara di Nola;Campania;2439;40.87187740248339;14.576783541228;Carbonara di Nola, Campania;;False
1346;Cardito;Campania;21413;40.93856952779404;14.294084679180362;Cardito, Campania;;False
1359;Carife;Campania;1244;41.01854485577338;15.212562908215045;Carife, Campania;;False
1362;Carinaro;Campania;7053;41.003859473708225;14.227923538115313;Carinaro, Campania;;False
1364;Carinola;Campania;7043;41.184974440906345;13.991030032748611;Carinola, Campania;;False
1424;Casagiove;Campania;12834;41.083971945967;14.305875875041048;Casagiove, Campania;;False
1427;Casal Velino;Campania;5360;40.205268056522605;15.129076804156586;Casal Velino, Campania;;False
1426;Casal di Principe;Campania;21674;41.02437934814541;14.113663900156782;Casal di Principe, Campania;;False
1432;Casalbore;Campania;1522;41.24274021622013;15.014828900405671;Casalbore, Campania;;False
1434;Casalbuono;Campania;1018;40.21706008078706;15.694650848933149;Casalbuono, Campania;;False
1437;Casalduni;Campania;1183;41.25646695400411;14.68864090374205;Casalduni, Campania;;False
1452;Casaletto Spartano;Campania;1226;40.1692632089988;15.647870455053628;Casaletto Spartano, Campania;;False
1465;Casalnuovo di Napoli;Campania;46614;40.90747469633627;14.351883091973551;Casalnuovo di Napoli, Campania;;False
1471;Casaluce;Campania;9443;41.01979749626882;14.2020837866843;Casaluce, Campania;;False
1477;Casamarciano;Campania;2996;40.93522875065086;14.560062578301176;Casamarciano, Campania;;False
1479;Casamicciola Terme;Campania;7432;40.74099741220186;13.90949125680755;Casamicciola Terme, Campania;;False
1480;Casandrino;Campania;13020;40.92708199987173;14.247205348876433;Casandrino, Campania;;False
1485;Casapesenna;Campania;7261;40.98893602542445;14.135678945689913;Casapesenna, Campania;;False
1488;Casapulla;Campania;8261;41.07848348524168;14.291159416146083;Casapulla, Campania;;False
1497;Casavatore;Campania;18160;40.89840799888752;14.27561381449078;Casavatore, Campania;;False
1507;Caselle in Pittari;Campania;1865;40.186088373397894;15.537037193740415;Caselle in Pittari, Campania;;False
1511;Caserta;Campania;72632;41.08756236669463;14.357305188751257;Caserta, Campania;;False
1519;Casola di Napoli;Campania;3608;40.69618827088057;14.536758815292666;Casola di Napoli, Campania;;False
1527;Casoria;Campania;73491;40.9005722137364;14.304986813186767;Casoria, Campania;;False
1536;Cassano Irpino;Campania;958;40.87836708508801;15.026791607272107;Cassano Irpino, Campania;;False
1564;Castel Baronia;Campania;1055;41.043791442055586;15.17842850151268;Castel Baronia, Campania;;False
1567;Castel Campagnano;Campania;1407;41.16602310219809;14.436364243847382;Castel Campagnano, Campania;;False
1596;Castel Morrone;Campania;3568;41.12439733831549;14.351413500705606;Castel Morrone, Campania;;False
1600;Castel San Giorgio;Campania;13705;40.78122561057961;14.68498272838116;Castel San Giorgio, Campania;;False
1602;Castel San Lorenzo;Campania;2174;40.41929732930992;15.215535613665423;Castel San Lorenzo, Campania;;False
1611;Castel Volturno;Campania;30686;41.02621443999708;13.971751420714387;Castel Volturno, Campania;;False
1583;Castel di Sasso;Campania;1010;41.18750411741618;14.291229301830272;Castel di Sasso, Campania;;False
1619;Castelcivita;Campania;1383;40.50472467523369;15.233353925918262;Castelcivita, Campania;;False
1629;Castelfranci;Campania;1691;40.92088159086342;15.055006226177902;Castelfranci, Campania;;False
1632;Castelfranco in Miscano;Campania;762;41.29110092358115;15.10065122060513;Castelfranco in Miscano, Campania;;False
1644;Castellabate;Campania;8679;40.27980437701597;14.951432357476303;Castellabate, Campania;;False
1648;Castellammare di Stabia;Campania;62157;40.69618222403367;14.481296064026296;Castellammare di Stabia, Campania;;False
1684;Castello del Matese;Campania;1357;41.390158248016576;14.428377707531183;Castello del Matese, Campania;;False
1688;Castello di Cisterna;Campania;7795;40.91784620356286;14.41075446184888;Castello di Cisterna, Campania;;False
1715;Castelnuovo Cilento;Campania;2831;40.21222370003665;15.178252693531174;Castelnuovo Cilento, Campania;;False
1719;Castelnuovo di Conza;Campania;561;40.82221912020061;15.311068361914897;Castelnuovo di Conza, Campania;;False
1730;Castelpagano;Campania;1336;41.41725728762832;14.809770210643912;Castelpagano, Campania;;False
1734;Castelpoto;Campania;1123;41.12873687012581;14.698695470997617;Castelpoto, Campania;;False
1748;Castelvenere;Campania;2361;41.231362408081125;14.555061981525917;Castelvenere, Campania;;False
1751;Castelvetere in Val Fortore;Campania;932;41.43810221532499;14.935778574972453;Castelvetere in Val Fortore, Campania;;False
1752;Castelvetere sul Calore;Campania;1463;40.93229360388997;14.978354997551053;Castelvetere sul Calore, Campania;;False
1768;Castiglione del Genovesi;Campania;1271;40.72872072354596;14.843153456857417;Castiglione del Genovesi, Campania;;False
1815;Cautano;Campania;1885;41.14839320394567;14.619645330386795;Cautano, Campania;;False
1816;Cava de' Tirreni;Campania;49754;40.710010235538306;14.70467568307689;Cava de' Tirreni, Campania;;False
1872;Celle di Bulgheria;Campania;1685;40.10051772584968;15.390351273068688;Celle di Bulgheria, Campania;;False
1882;Cellole;Campania;8272;41.20289943132038;13.833931462956969;Cellole, Campania;;False
1893;Centola;Campania;4954;40.078379557098295;15.313586263568547;Centola, Campania;;False
1898;Ceppaloni;Campania;3205;41.055220379303165;14.746738098524588;Ceppaloni, Campania;;False
1906;Ceraso;Campania;2205;40.187699026511545;15.24752231611324;Ceraso, Campania;;False
1914;Cercola;Campania;16733;40.8618200659676;14.35881045481736;Cercola, Campania;;False
1945;Cerreto Sannita;Campania;3543;41.297880605098705;14.582013857722258;Cerreto Sannita, Campania;;False
1971;Cervinara;Campania;8669;41.016001740252875;14.624963019827428;Cervinara, Campania;;False
1972;Cervino;Campania;4720;41.04063513032323;14.433482928858815;Cervino, Campania;;False
1975;Cesa;Campania;9705;40.95994243805596;14.22836224259869;Cesa, Campania;;False
1985;Cesinali;Campania;2520;40.89623095023741;14.836844126207652;Cesinali, Campania;;False
1992;Cetara;Campania;1919;40.65766919726039;14.693178186028776;Cetara, Campania;;False
2009;Chianche;Campania;462;41.04198302379582;14.788452874387948;Chianche, Campania;;False
2050;Chiusano di San Domenico;Campania;2059;40.93090027019692;14.930538802157049;Chiusano di San Domenico, Campania;;False
2062;Cicciano;Campania;12294;40.96663339428562;14.52447417355612;Cicciano, Campania;;False
2063;Cicerale;Campania;1165;40.35355736890849;15.117869451213362;Cicerale, Campania;;False
2076;Cimitile;Campania;6892;40.94582260560325;14.518320380512913;Cimitile, Campania;;False
2093;Ciorlano;Campania;352;41.446998386761926;14.125812203735554;Ciorlano, Campania;;False
2095;Circello;Campania;2095;41.34871086359349;14.792239365234543;Circello, Campania;;False
2191;Colle Sannita;Campania;2122;41.38377960290338;14.855979130862362;Colle Sannita, Campania;;False
2218;Colliano;Campania;3397;40.714249298837295;15.308510470231006;Colliano, Campania;;False
2251;Comiziano;Campania;1698;40.94851223097602;14.547182613586406;Comiziano, Campania;;False
2260;Conca dei Marini;Campania;636;40.617454450784535;14.567621098522944;Conca dei Marini, Campania;;False
2261;Conca della Campania;Campania;1141;41.35106556416452;14.001842493914143;Conca della Campania, Campania;;False
2280;Contrada;Campania;3045;40.869054441523915;14.778193835970384;Contrada, Campania;;False
2282;Controne;Campania;771;40.51618649960913;15.200293453643908;Controne, Campania;;False
2283;Contursi Terme;Campania;3158;40.64890471696401;15.241998149634444;Contursi Terme, Campania;;False
2286;Conza della Campania;Campania;1259;40.873830449480174;15.314839933611024;Conza della Campania, Campania;;False
2293;Corbara;Campania;2484;40.7121528958326;14.593026080757484;Corbara, Campania;;False
2312;Corleto Monforte;Campania;479;40.44718963770007;15.400018911717298;Corleto Monforte, Campania;;False
2424;Crispano;Campania;11616;40.95489678534941;14.288114130901157;Crispano, Campania;;False
2441;Cuccaro Vetere;Campania;511;40.174868447252024;15.30901153776038;Cuccaro Vetere, Campania;;False
2468;Curti;Campania;6631;41.074350853406486;14.274063824054569;Curti, Campania;;False
2471;Cusano Mutri;Campania;3726;41.341055763954834;14.505205192900732;Cusano Mutri, Campania;;False
2539;Domicella;Campania;1810;40.88160668190175;14.590087412326964;Domicella, Campania;;False
2559;Dragoni;Campania;1895;41.26514691074852;14.305197190794292;Dragoni, Campania;;False
2572;Dugenta;Campania;2652;41.13876145795723;14.45473985015514;Dugenta, Campania;;False
2576;Durazzano;Campania;2050;41.059181615860446;14.453247523563416;Durazzano, Campania;;False
2579;Eboli;Campania;37578;40.56221620765351;15.005488329940729;Eboli, Campania;;False
2603;Ercolano;Campania;49344;40.8195286524117;14.38031305103574;Ercolano, Campania;Resina;False
2639;Faicchio;Campania;3202;41.26741203165445;14.471054954570928;Faicchio, Campania;;False
2641;Falciano del Massico;Campania;3402;41.14179928488557;13.96317240698397;Falciano del Massico, Campania;;False
2681;Felitto;Campania;1175;40.386051481346115;15.25233493255556;Felitto, Campania;;False
2746;Fisciano;Campania;14110;40.77318973554852;14.8003058690081;Fisciano, Campania;;False
2764;Flumeri;Campania;2472;41.075984367782155;15.147955852144554;Flumeri, Campania;;False
2769;Foglianise;Campania;3081;41.15985476745325;14.685611666779437;Foglianise, Campania;;False
2773;Foiano di Val Fortore;Campania;1296;41.35367758210977;14.977829242558206;Foiano di Val Fortore, Campania;;False
2787;Fontanarosa;Campania;2838;41.01329114878617;15.02338139525727;Fontanarosa, Campania;;False
2801;Fontegreca;Campania;733;41.45730773389764;14.185612687648868;Fontegreca, Campania;;False
2808;Forchia;Campania;1186;41.03158378235683;14.530384356798027;Forchia, Campania;;False
2814;Forino;Campania;5163;40.85797366322578;14.732873909649332;Forino, Campania;;False
2815;Forio;Campania;17539;40.72785664148427;13.872174438171234;Forio, Campania;;False
2822;Formicola;Campania;1459;41.22119285043539;14.220334894512408;Formicola, Campania;;False
2856;Fragneto Monforte;Campania;1665;41.23937129937738;14.755758497056664;Fragneto Monforte, Campania;;False
2855;Fragneto l'Abate;Campania;930;41.27550861023568;14.780170590685884;Fragneto l'Abate, Campania;;False
2869;Francolise;Campania;4618;41.15740646027231;14.05801951233816;Francolise, Campania;;False
2882;Frasso Telesino;Campania;1984;41.14666452694374;14.530422157210657;Frasso Telesino, Campania;;False
